{"generatedAt":"2026-07-05T13:17:47.227Z","minPopulation":15000,"countryCount":244,"cityCount":12302,"countries":[{"id":"ad","iso2":"AD","label":"Andorra","type":"cities","timezone":"auto","cities":[{"id":"andorra-la-vella-07","slug":"andorra-la-vella-07","name":"Andorra la Vella","lat":42.50779,"lon":1.52109,"population":20430,"timezone":"auto"},{"id":"les-escaldes-08","slug":"les-escaldes-08","name":"les Escaldes","lat":42.50729,"lon":1.53414,"population":15853,"timezone":"auto"}]},{"id":"ae","iso2":"AE","label":"United Arab Emirates","type":"cities","timezone":"auto","cities":[{"id":"dubai-03","slug":"dubai-03","name":"Dubai","lat":25.07725,"lon":55.30927,"population":2956587,"timezone":"auto"},{"id":"sharjah-06","slug":"sharjah-06","name":"Sharjah","lat":25.33737,"lon":55.41206,"population":1324473,"timezone":"auto"},{"id":"abu-dhabi-01","slug":"abu-dhabi-01","name":"Abu Dhabi","lat":24.45118,"lon":54.39696,"population":603492,"timezone":"auto"},{"id":"ajman-city-02","slug":"ajman-city-02","name":"Ajman City","lat":25.40177,"lon":55.47878,"population":490035,"timezone":"auto"},{"id":"ras-al-khaimah-city-05","slug":"ras-al-khaimah-city-05","name":"Ras Al Khaimah City","lat":25.78953,"lon":55.9432,"population":351943,"timezone":"auto"},{"id":"musaffah-01","slug":"musaffah-01","name":"Musaffah","lat":24.35893,"lon":54.48267,"population":243341,"timezone":"auto"},{"id":"al-fujairah-city-04","slug":"al-fujairah-city-04","name":"Al Fujairah City","lat":25.11641,"lon":56.34141,"population":86512,"timezone":"auto"},{"id":"khalifah-a-city-01","slug":"khalifah-a-city-01","name":"Khalifah A City","lat":24.42588,"lon":54.605,"population":85374,"timezone":"auto"},{"id":"reef-al-fujairah-city-04","slug":"reef-al-fujairah-city-04","name":"Reef Al Fujairah City","lat":25.14479,"lon":56.24764,"population":82310,"timezone":"auto"},{"id":"bani-yas-city-01","slug":"bani-yas-city-01","name":"Bani Yas City","lat":24.30978,"lon":54.62944,"population":80498,"timezone":"auto"},{"id":"zayed-city-01","slug":"zayed-city-01","name":"Zayed City","lat":23.65416,"lon":53.70522,"population":63482,"timezone":"auto"},{"id":"umm-al-quwain-city-07","slug":"umm-al-quwain-city-07","name":"Umm Al Quwain City","lat":25.56473,"lon":55.55517,"population":62747,"timezone":"auto"},{"id":"al-shamkhah-city-01","slug":"al-shamkhah-city-01","name":"Al Shamkhah City","lat":24.39268,"lon":54.70779,"population":61710,"timezone":"auto"},{"id":"al-ain-city-01","slug":"al-ain-city-01","name":"Al Ain City","lat":24.19167,"lon":55.76056,"population":55091,"timezone":"auto"},{"id":"khawr-fakkan-06","slug":"khawr-fakkan-06","name":"Khawr Fakkān","lat":25.33132,"lon":56.34199,"population":40677,"timezone":"auto"},{"id":"dibba-al-fujairah-04","slug":"dibba-al-fujairah-04","name":"Dibba Al-Fujairah","lat":25.59246,"lon":56.26176,"population":30000,"timezone":"auto"},{"id":"dibba-al-hisn-04","slug":"dibba-al-hisn-04","name":"Dibba Al-Hisn","lat":25.61955,"lon":56.27291,"population":26395,"timezone":"auto"},{"id":"adh-dhayd-06","slug":"adh-dhayd-06","name":"Adh Dhayd","lat":25.28812,"lon":55.88157,"population":24716,"timezone":"auto"},{"id":"ar-ruways-01","slug":"ar-ruways-01","name":"Ar Ruways","lat":24.11028,"lon":52.73056,"population":16000,"timezone":"auto"}]},{"id":"af","iso2":"AF","label":"Afghanistan","type":"cities","timezone":"auto","cities":[{"id":"kabul-13","slug":"kabul-13","name":"Kabul","lat":34.52813,"lon":69.17233,"population":3043532,"timezone":"auto"},{"id":"kandahar-23","slug":"kandahar-23","name":"Kandahār","lat":31.61332,"lon":65.71013,"population":391190,"timezone":"auto"},{"id":"mazar-e-sharif-30","slug":"mazar-e-sharif-30","name":"Mazār-e Sharīf","lat":36.70904,"lon":67.11087,"population":303282,"timezone":"auto"},{"id":"herat-11","slug":"herat-11","name":"Herāt","lat":34.34817,"lon":62.19967,"population":272806,"timezone":"auto"},{"id":"jalalabad-18","slug":"jalalabad-18","name":"Jalālābād","lat":34.42647,"lon":70.45153,"population":200331,"timezone":"auto"},{"id":"kunduz-24","slug":"kunduz-24","name":"Kunduz","lat":36.72895,"lon":68.857,"population":161902,"timezone":"auto"},{"id":"ghazni-08","slug":"ghazni-08","name":"Ghazni","lat":33.55391,"lon":68.42096,"population":141000,"timezone":"auto"},{"id":"balkh-30","slug":"balkh-30","name":"Balkh","lat":36.75635,"lon":66.8972,"population":114883,"timezone":"auto"},{"id":"baghlan-03","slug":"baghlan-03","name":"Baghlān","lat":36.13068,"lon":68.70829,"population":108449,"timezone":"auto"},{"id":"gardez-36","slug":"gardez-36","name":"Gardez","lat":33.59744,"lon":69.22592,"population":103601,"timezone":"auto"},{"id":"khost-37","slug":"khost-37","name":"Khōst","lat":33.33951,"lon":69.92041,"population":96123,"timezone":"auto"},{"id":"maymana-07","slug":"maymana-07","name":"Maymana","lat":35.92139,"lon":64.78361,"population":75900,"timezone":"auto"},{"id":"khanabad-24","slug":"khanabad-24","name":"Khanabad","lat":36.6825,"lon":69.11556,"population":71531,"timezone":"auto"},{"id":"bazar-e-yakawlang-05","slug":"bazar-e-yakawlang-05","name":"Bāzār-e Yakāwlang","lat":34.73525,"lon":66.97379,"population":65000,"timezone":"auto"},{"id":"bazarak-42","slug":"bazarak-42","name":"Bāzārak","lat":35.31292,"lon":69.51519,"population":65000,"timezone":"auto"},{"id":"khulm-30","slug":"khulm-30","name":"Khulm","lat":36.69736,"lon":67.69826,"population":64933,"timezone":"auto"},{"id":"taloqan-26","slug":"taloqan-26","name":"Taloqan","lat":36.73605,"lon":69.53451,"population":64256,"timezone":"auto"},{"id":"bamyan-05","slug":"bamyan-05","name":"Bāmyān","lat":34.82156,"lon":67.82734,"population":61863,"timezone":"auto"},{"id":"pul-e-khumri-03","slug":"pul-e-khumri-03","name":"Pul-e Khumrī","lat":35.94458,"lon":68.71512,"population":56369,"timezone":"auto"},{"id":"shibirghan-31","slug":"shibirghan-31","name":"Shibirghān","lat":36.66757,"lon":65.7529,"population":55641,"timezone":"auto"},{"id":"charikar-40","slug":"charikar-40","name":"Charikar","lat":35.01361,"lon":69.17139,"population":53676,"timezone":"auto"},{"id":"sar-e-pul-33","slug":"sar-e-pul-33","name":"Sar-e Pul","lat":36.21544,"lon":65.93249,"population":52121,"timezone":"auto"},{"id":"zaranj-19","slug":"zaranj-19","name":"Zaranj","lat":30.95962,"lon":61.86037,"population":49851,"timezone":"auto"},{"id":"paghman-13","slug":"paghman-13","name":"Paghmān","lat":34.58787,"lon":68.95091,"population":49157,"timezone":"auto"},{"id":"asadabad-34","slug":"asadabad-34","name":"Asadābād","lat":34.87311,"lon":71.14697,"population":48400,"timezone":"auto"},{"id":"aibak-32","slug":"aibak-32","name":"Aībak","lat":36.26468,"lon":68.01551,"population":47823,"timezone":"auto"},{"id":"fayzabad-01","slug":"fayzabad-01","name":"Fayzabad","lat":37.11664,"lon":70.58002,"population":44421,"timezone":"auto"},{"id":"lashkar-gah-10","slug":"lashkar-gah-10","name":"Lashkar Gāh","lat":31.59382,"lon":64.37161,"population":43934,"timezone":"auto"},{"id":"gereshk-10","slug":"gereshk-10","name":"Gereshk","lat":31.82089,"lon":64.57005,"population":43588,"timezone":"auto"},{"id":"farah-06","slug":"farah-06","name":"Farah","lat":32.37451,"lon":62.11638,"population":43561,"timezone":"auto"},{"id":"ghormach-02","slug":"ghormach-02","name":"Ghormach","lat":35.73062,"lon":63.78264,"population":30000,"timezone":"auto"},{"id":"shindand-11","slug":"shindand-11","name":"Shīnḏanḏ","lat":33.30294,"lon":62.1474,"population":29264,"timezone":"auto"},{"id":"andkhoy-07","slug":"andkhoy-07","name":"Andkhōy","lat":36.95293,"lon":65.12376,"population":29208,"timezone":"auto"},{"id":"rustaq-26","slug":"rustaq-26","name":"Rustāq","lat":37.12604,"lon":69.83045,"population":25636,"timezone":"auto"},{"id":"qarawul-24","slug":"qarawul-24","name":"Qarāwul","lat":37.21959,"lon":68.7802,"population":24544,"timezone":"auto"},{"id":"nahrin-03","slug":"nahrin-03","name":"Nahrīn","lat":36.0649,"lon":69.13343,"population":22363,"timezone":"auto"},{"id":"baraki-barak-17","slug":"baraki-barak-17","name":"Baraki Barak","lat":33.96744,"lon":68.9492,"population":22305,"timezone":"auto"},{"id":"art-khwajah-26","slug":"art-khwajah-26","name":"Ārt Khwājah","lat":37.08571,"lon":69.47958,"population":18623,"timezone":"auto"},{"id":"kafir-qala-11","slug":"kafir-qala-11","name":"Kafir Qala","lat":34.66667,"lon":61.06667,"population":18086,"timezone":"auto"},{"id":"karukh-11","slug":"karukh-11","name":"Karukh","lat":34.48108,"lon":62.5863,"population":17484,"timezone":"auto"},{"id":"mehtar-lam-35","slug":"mehtar-lam-35","name":"Mehtar Lām","lat":34.67139,"lon":70.20944,"population":17345,"timezone":"auto"},{"id":"kushk-11","slug":"kushk-11","name":"Kushk","lat":33.29565,"lon":61.95221,"population":16952,"timezone":"auto"},{"id":"shahrak-09","slug":"shahrak-09","name":"Shahrak","lat":34.10737,"lon":64.3052,"population":15967,"timezone":"auto"},{"id":"asmar-34","slug":"asmar-34","name":"Āsmār","lat":35.03333,"lon":71.35809,"population":15708,"timezone":"auto"},{"id":"sang-e-charak-33","slug":"sang-e-charak-33","name":"Sang-e Chārak","lat":35.84972,"lon":66.43694,"population":15377,"timezone":"auto"},{"id":"khash-19","slug":"khash-19","name":"Khāsh","lat":31.52919,"lon":62.79055,"population":15133,"timezone":"auto"},{"id":"markaz-e-woluswali-ye-achin-18","slug":"markaz-e-woluswali-ye-achin-18","name":"Markaz-e Woluswalī-ye Āchīn","lat":34.12583,"lon":70.70778,"population":15098,"timezone":"auto"},{"id":"jabal-os-saraj-40","slug":"jabal-os-saraj-40","name":"Jabal os Saraj","lat":35.11833,"lon":69.23778,"population":15032,"timezone":"auto"},{"id":"qarqin-31","slug":"qarqin-31","name":"Qarqīn","lat":37.41853,"lon":66.04358,"population":15018,"timezone":"auto"},{"id":"fayroz-koh-09","slug":"fayroz-koh-09","name":"Fayrōz Kōh","lat":34.51952,"lon":65.25093,"population":15000,"timezone":"auto"}]},{"id":"ag","iso2":"AG","label":"Antigua and Barbuda","type":"cities","timezone":"auto","cities":[{"id":"saint-john-s-04","slug":"saint-john-s-04","name":"Saint John’s","lat":17.12096,"lon":-61.84329,"population":24226,"timezone":"auto"}]},{"id":"ai","iso2":"AI","label":"AI","type":"cities","timezone":"auto","cities":[{"id":"the-valley-11205396","slug":"the-valley-11205396","name":"The Valley","lat":18.21704,"lon":-63.05783,"population":2035,"timezone":"auto"}]},{"id":"al","iso2":"AL","label":"Albania","type":"cities","timezone":"auto","cities":[{"id":"tirana-50","slug":"tirana-50","name":"Tirana","lat":41.3275,"lon":19.81889,"population":374801,"timezone":"auto"},{"id":"durres-42","slug":"durres-42","name":"Durrës","lat":41.32355,"lon":19.45469,"population":122034,"timezone":"auto"},{"id":"elbasan-43","slug":"elbasan-43","name":"Elbasan","lat":41.1125,"lon":20.08222,"population":100903,"timezone":"auto"},{"id":"vlore-51","slug":"vlore-51","name":"Vlorë","lat":40.4686,"lon":19.48318,"population":89546,"timezone":"auto"},{"id":"shkoder-49","slug":"shkoder-49","name":"Shkodër","lat":42.06828,"lon":19.51258,"population":88245,"timezone":"auto"},{"id":"pogradec-46","slug":"pogradec-46","name":"Pogradec","lat":40.9025,"lon":20.6525,"population":61530,"timezone":"auto"},{"id":"fier-cifci-44","slug":"fier-cifci-44","name":"Fier-Çifçi","lat":40.71667,"lon":19.56667,"population":60995,"timezone":"auto"},{"id":"patos-44","slug":"patos-44","name":"Patos","lat":40.68333,"lon":19.61944,"population":60000,"timezone":"auto"},{"id":"korce-46","slug":"korce-46","name":"Korçë","lat":40.61861,"lon":20.78083,"population":58259,"timezone":"auto"},{"id":"fier-44","slug":"fier-44","name":"Fier","lat":40.72389,"lon":19.55611,"population":56297,"timezone":"auto"},{"id":"berat-40","slug":"berat-40","name":"Berat","lat":40.70583,"lon":19.95222,"population":46866,"timezone":"auto"},{"id":"lushnje-44","slug":"lushnje-44","name":"Lushnjë","lat":40.94194,"lon":19.705,"population":41469,"timezone":"auto"},{"id":"kavaje-50","slug":"kavaje-50","name":"Kavajë","lat":41.18556,"lon":19.55694,"population":29354,"timezone":"auto"},{"id":"lac-48","slug":"lac-48","name":"Laç","lat":41.63556,"lon":19.71306,"population":24825,"timezone":"auto"},{"id":"gjirokaster-45","slug":"gjirokaster-45","name":"Gjirokastër","lat":40.07583,"lon":20.13889,"population":23437,"timezone":"auto"},{"id":"patos-fshat-44","slug":"patos-fshat-44","name":"Patos Fshat","lat":40.64278,"lon":19.65083,"population":22679,"timezone":"auto"},{"id":"kruje-42","slug":"kruje-42","name":"Krujë","lat":41.50917,"lon":19.79278,"population":21286,"timezone":"auto"},{"id":"lezhe-48","slug":"lezhe-48","name":"Lezhë","lat":41.78361,"lon":19.64361,"population":18695,"timezone":"auto"},{"id":"kucove-40","slug":"kucove-40","name":"Kuçovë","lat":40.80028,"lon":19.91667,"population":18166,"timezone":"auto"},{"id":"kukes-47","slug":"kukes-47","name":"Kukës","lat":42.07694,"lon":20.42194,"population":17832,"timezone":"auto"},{"id":"burrel-41","slug":"burrel-41","name":"Burrel","lat":41.61028,"lon":20.00889,"population":15405,"timezone":"auto"},{"id":"sarande-51","slug":"sarande-51","name":"Sarandë","lat":39.87534,"lon":20.00477,"population":15147,"timezone":"auto"}]},{"id":"am","iso2":"AM","label":"Armenia","type":"cities","timezone":"auto","cities":[{"id":"yerevan-11","slug":"yerevan-11","name":"Yerevan","lat":40.18111,"lon":44.51361,"population":1093485,"timezone":"auto"},{"id":"gyumri-07","slug":"gyumri-07","name":"Gyumri","lat":40.7942,"lon":43.84528,"population":148381,"timezone":"auto"},{"id":"vanadzor-06","slug":"vanadzor-06","name":"Vanadzor","lat":40.80456,"lon":44.4939,"population":101098,"timezone":"auto"},{"id":"vagharshapat-03","slug":"vagharshapat-03","name":"Vagharshapat","lat":40.16557,"lon":44.29462,"population":46540,"timezone":"auto"},{"id":"hrazdan-05","slug":"hrazdan-05","name":"Hrazdan","lat":40.49748,"lon":44.7662,"population":40795,"timezone":"auto"},{"id":"abovyan-05","slug":"abovyan-05","name":"Abovyan","lat":40.27368,"lon":44.63348,"population":35673,"timezone":"auto"},{"id":"kapan-08","slug":"kapan-08","name":"Kapan","lat":39.20755,"lon":46.40576,"population":33160,"timezone":"auto"},{"id":"ararat-02","slug":"ararat-02","name":"Ararat","lat":39.83069,"lon":44.70569,"population":28832,"timezone":"auto"},{"id":"armavir-03","slug":"armavir-03","name":"Armavir","lat":40.15446,"lon":44.03815,"population":25963,"timezone":"auto"},{"id":"step-anavan-06","slug":"step-anavan-06","name":"Step’anavan","lat":41.00995,"lon":44.38531,"population":23782,"timezone":"auto"},{"id":"gavarr-04","slug":"gavarr-04","name":"Gavarr","lat":40.35398,"lon":45.12386,"population":21680,"timezone":"auto"},{"id":"artashat-02","slug":"artashat-02","name":"Artashat","lat":39.96144,"lon":44.54447,"population":20562,"timezone":"auto"},{"id":"goris-08","slug":"goris-08","name":"Goris","lat":39.51111,"lon":46.34168,"population":20379,"timezone":"auto"},{"id":"masis-02","slug":"masis-02","name":"Masis","lat":40.06542,"lon":44.41618,"population":18911,"timezone":"auto"},{"id":"ashtarak-01","slug":"ashtarak-01","name":"Ashtarak","lat":40.2991,"lon":44.36204,"population":18779,"timezone":"auto"},{"id":"sevan-04","slug":"sevan-04","name":"Sevan","lat":40.5473,"lon":44.94171,"population":17083,"timezone":"auto"},{"id":"hats-avan-08","slug":"hats-avan-08","name":"Hats’avan","lat":39.46405,"lon":45.97047,"population":15208,"timezone":"auto"},{"id":"spitak-06","slug":"spitak-06","name":"Spitak","lat":40.83221,"lon":44.26731,"population":15059,"timezone":"auto"}]},{"id":"ao","iso2":"AO","label":"Angola","type":"cities","timezone":"auto","cities":[{"id":"luanda-20","slug":"luanda-20","name":"Luanda","lat":-8.83682,"lon":13.23432,"population":2776168,"timezone":"auto"},{"id":"n-dalatando-05","slug":"n-dalatando-05","name":"N’dalatando","lat":-9.29782,"lon":14.91162,"population":383100,"timezone":"auto"},{"id":"huambo-08","slug":"huambo-08","name":"Huambo","lat":-12.77611,"lon":15.73917,"population":226145,"timezone":"auto"},{"id":"lobito-01","slug":"lobito-01","name":"Lobito","lat":-12.3644,"lon":13.53601,"population":207932,"timezone":"auto"},{"id":"benguela-01","slug":"benguela-01","name":"Benguela","lat":-12.57626,"lon":13.40547,"population":151226,"timezone":"auto"},{"id":"cuito-02","slug":"cuito-02","name":"Cuito","lat":-12.38333,"lon":16.93333,"population":113624,"timezone":"auto"},{"id":"lubango-09","slug":"lubango-09","name":"Lubango","lat":-14.91717,"lon":13.4925,"population":102541,"timezone":"auto"},{"id":"malanje-12","slug":"malanje-12","name":"Malanje","lat":-9.54015,"lon":16.34096,"population":87046,"timezone":"auto"},{"id":"namibe-13","slug":"namibe-13","name":"Namibe","lat":-15.19611,"lon":12.15222,"population":80149,"timezone":"auto"},{"id":"soio-16","slug":"soio-16","name":"Soio","lat":-6.1349,"lon":12.36894,"population":67491,"timezone":"auto"},{"id":"cabinda-03","slug":"cabinda-03","name":"Cabinda","lat":-5.55,"lon":12.2,"population":66020,"timezone":"auto"},{"id":"uige-15","slug":"uige-15","name":"Uíge","lat":-7.60874,"lon":15.06131,"population":60008,"timezone":"auto"},{"id":"saurimo-18","slug":"saurimo-18","name":"Saurimo","lat":-9.66078,"lon":20.39155,"population":40498,"timezone":"auto"},{"id":"sumbe-06","slug":"sumbe-06","name":"Sumbe","lat":-11.20605,"lon":13.84371,"population":33277,"timezone":"auto"},{"id":"menongue-04","slug":"menongue-04","name":"Menongue","lat":-14.6585,"lon":17.69099,"population":32203,"timezone":"auto"},{"id":"caxito-19","slug":"caxito-19","name":"Caxito","lat":-8.57848,"lon":13.66425,"population":28224,"timezone":"auto"},{"id":"longonjo-08","slug":"longonjo-08","name":"Longonjo","lat":-12.90667,"lon":15.25333,"population":24346,"timezone":"auto"},{"id":"mbanza-kongo-16","slug":"mbanza-kongo-16","name":"Mbanza Kongo","lat":-6.26703,"lon":14.2401,"population":24220,"timezone":"auto"},{"id":"caala-08","slug":"caala-08","name":"Caála","lat":-12.8525,"lon":15.56056,"population":21205,"timezone":"auto"},{"id":"luena-14","slug":"luena-14","name":"Luena","lat":-11.78333,"lon":19.91667,"population":21115,"timezone":"auto"},{"id":"lucapa-17","slug":"lucapa-17","name":"Lucapa","lat":-8.41915,"lon":20.74466,"population":20115,"timezone":"auto"},{"id":"camacupa-02","slug":"camacupa-02","name":"Camacupa","lat":-12.01667,"lon":17.48333,"population":19150,"timezone":"auto"},{"id":"catabola-02","slug":"catabola-02","name":"Catabola","lat":-12.15,"lon":17.28333,"population":18855,"timezone":"auto"},{"id":"luau-14","slug":"luau-14","name":"Luau","lat":-10.70727,"lon":22.22466,"population":18465,"timezone":"auto"},{"id":"n-zeto-16","slug":"n-zeto-16","name":"N'zeto","lat":-7.23116,"lon":12.8666,"population":18352,"timezone":"auto"},{"id":"catumbela-01","slug":"catumbela-01","name":"Catumbela","lat":-12.43002,"lon":13.54677,"population":16977,"timezone":"auto"}]},{"id":"aq","iso2":"AQ","label":"AQ","type":"cities","timezone":"auto","cities":[{"id":"mcmurdo-station","slug":"mcmurdo-station","name":"McMurdo Station","lat":-77.846,"lon":166.676,"population":1258,"timezone":"auto"}]},{"id":"ar","iso2":"AR","label":"Argentina","type":"cities","timezone":"auto","cities":[{"id":"buenos-aires-07","slug":"buenos-aires-07","name":"Buenos Aires","lat":-34.61315,"lon":-58.37723,"population":13076300,"timezone":"auto"},{"id":"cordoba-05","slug":"cordoba-05","name":"Córdoba","lat":-31.4135,"lon":-64.18105,"population":1428214,"timezone":"auto"},{"id":"rosario-21","slug":"rosario-21","name":"Rosario","lat":-32.94682,"lon":-60.63932,"population":1173533,"timezone":"auto"},{"id":"mendoza-13","slug":"mendoza-13","name":"Mendoza","lat":-32.89084,"lon":-68.82717,"population":876884,"timezone":"auto"},{"id":"san-miguel-de-tucuman-24","slug":"san-miguel-de-tucuman-24","name":"San Miguel de Tucumán","lat":-26.82414,"lon":-65.2226,"population":781023,"timezone":"auto"},{"id":"la-plata-01","slug":"la-plata-01","name":"La Plata","lat":-34.92145,"lon":-57.95453,"population":694167,"timezone":"auto"},{"id":"mar-del-plata-01","slug":"mar-del-plata-01","name":"Mar del Plata","lat":-38.00042,"lon":-57.5562,"population":553935,"timezone":"auto"},{"id":"salta-17","slug":"salta-17","name":"Salta","lat":-24.7859,"lon":-65.41166,"population":512686,"timezone":"auto"},{"id":"santa-fe-21","slug":"santa-fe-21","name":"Santa Fe","lat":-31.64881,"lon":-60.70868,"population":489505,"timezone":"auto"},{"id":"san-juan-18","slug":"san-juan-18","name":"San Juan","lat":-31.5375,"lon":-68.53639,"population":447048,"timezone":"auto"},{"id":"resistencia-03","slug":"resistencia-03","name":"Resistencia","lat":-27.46056,"lon":-58.98389,"population":387158,"timezone":"auto"},{"id":"santiago-del-estero-22","slug":"santiago-del-estero-22","name":"Santiago del Estero","lat":-27.79511,"lon":-64.26149,"population":354692,"timezone":"auto"},{"id":"corrientes-06","slug":"corrientes-06","name":"Corrientes","lat":-27.46784,"lon":-58.8344,"population":339067,"timezone":"auto"},{"id":"posadas-14","slug":"posadas-14","name":"Posadas","lat":-27.36708,"lon":-55.89608,"population":323739,"timezone":"auto"},{"id":"moron-01","slug":"moron-01","name":"Morón","lat":-34.6509,"lon":-58.61956,"population":319934,"timezone":"auto"},{"id":"san-salvador-de-jujuy-10","slug":"san-salvador-de-jujuy-10","name":"San Salvador de Jujuy","lat":-24.19457,"lon":-65.29712,"population":305891,"timezone":"auto"},{"id":"bahia-blanca-01","slug":"bahia-blanca-01","name":"Bahía Blanca","lat":-38.71959,"lon":-62.27243,"population":276546,"timezone":"auto"},{"id":"parana-08","slug":"parana-08","name":"Paraná","lat":-31.73271,"lon":-60.52897,"population":262295,"timezone":"auto"},{"id":"merlo-01","slug":"merlo-01","name":"Merlo","lat":-34.66627,"lon":-58.72927,"population":244168,"timezone":"auto"},{"id":"neuquen-15","slug":"neuquen-15","name":"Neuquén","lat":-38.95161,"lon":-68.0591,"population":242092,"timezone":"auto"},{"id":"jose-c-paz-01","slug":"jose-c-paz-01","name":"José C. Paz","lat":-34.51541,"lon":-58.76813,"population":230208,"timezone":"auto"},{"id":"quilmes-01","slug":"quilmes-01","name":"Quilmes","lat":-34.72904,"lon":-58.26374,"population":230000,"timezone":"auto"},{"id":"pilar-01","slug":"pilar-01","name":"Pilar","lat":-34.45866,"lon":-58.9142,"population":226517,"timezone":"auto"},{"id":"formosa-09","slug":"formosa-09","name":"Formosa","lat":-26.18489,"lon":-58.17313,"population":221383,"timezone":"auto"},{"id":"san-fernando-del-valle-de-catamarca-02","slug":"san-fernando-del-valle-de-catamarca-02","name":"San Fernando del Valle de Catamarca","lat":-28.46957,"lon":-65.78524,"population":188812,"timezone":"auto"},{"id":"san-luis-19","slug":"san-luis-19","name":"San Luis","lat":-33.29501,"lon":-66.33563,"population":183982,"timezone":"auto"},{"id":"berazategui-01","slug":"berazategui-01","name":"Berazategui","lat":-34.76531,"lon":-58.21278,"population":167498,"timezone":"auto"},{"id":"la-rioja-12","slug":"la-rioja-12","name":"La Rioja","lat":-29.41105,"lon":-66.85067,"population":162620,"timezone":"auto"},{"id":"san-miguel-01","slug":"san-miguel-01","name":"San Miguel","lat":-34.54335,"lon":-58.71229,"population":157532,"timezone":"auto"},{"id":"rio-cuarto-05","slug":"rio-cuarto-05","name":"Río Cuarto","lat":-33.13067,"lon":-64.34992,"population":153757,"timezone":"auto"},{"id":"balvanera-07","slug":"balvanera-07","name":"Balvanera","lat":-34.61032,"lon":-58.39766,"population":152198,"timezone":"auto"},{"id":"concordia-08","slug":"concordia-08","name":"Concordia","lat":-31.39296,"lon":-58.02089,"population":145210,"timezone":"auto"},{"id":"comodoro-rivadavia-04","slug":"comodoro-rivadavia-04","name":"Comodoro Rivadavia","lat":-45.86413,"lon":-67.49656,"population":140850,"timezone":"auto"},{"id":"belgrano-07","slug":"belgrano-07","name":"Belgrano","lat":-34.5627,"lon":-58.45829,"population":138942,"timezone":"auto"},{"id":"san-nicolas-de-los-arroyos-01","slug":"san-nicolas-de-los-arroyos-01","name":"San Nicolás de los Arroyos","lat":-33.33425,"lon":-60.2108,"population":127742,"timezone":"auto"},{"id":"villa-lugano-07","slug":"villa-lugano-07","name":"Villa Lugano","lat":-34.67907,"lon":-58.47263,"population":114000,"timezone":"auto"},{"id":"santa-rosa-11","slug":"santa-rosa-11","name":"Santa Rosa","lat":-36.61667,"lon":-64.28333,"population":111424,"timezone":"auto"},{"id":"san-rafael-13","slug":"san-rafael-13","name":"San Rafael","lat":-34.61772,"lon":-68.33007,"population":109163,"timezone":"auto"},{"id":"tandil-01","slug":"tandil-01","name":"Tandil","lat":-37.32167,"lon":-59.13316,"population":104325,"timezone":"auto"},{"id":"villa-mercedes-19","slug":"villa-mercedes-19","name":"Villa Mercedes","lat":-33.67571,"lon":-65.45783,"population":96781,"timezone":"auto"},{"id":"san-carlos-de-bariloche-16","slug":"san-carlos-de-bariloche-16","name":"San Carlos de Bariloche","lat":-41.14557,"lon":-71.30822,"population":95394,"timezone":"auto"},{"id":"trelew-04","slug":"trelew-04","name":"Trelew","lat":-43.24895,"lon":-65.30505,"population":93442,"timezone":"auto"},{"id":"villa-maria-05","slug":"villa-maria-05","name":"Villa María","lat":-32.40751,"lon":-63.24016,"population":92453,"timezone":"auto"},{"id":"reconquista-21","slug":"reconquista-21","name":"Reconquista","lat":-29.15,"lon":-59.65,"population":90184,"timezone":"auto"},{"id":"zarate-01","slug":"zarate-01","name":"Zárate","lat":-34.09814,"lon":-59.02858,"population":88781,"timezone":"auto"},{"id":"rafaela-21","slug":"rafaela-21","name":"Rafaela","lat":-31.25033,"lon":-61.4867,"population":88713,"timezone":"auto"},{"id":"pergamino-01","slug":"pergamino-01","name":"Pergamino","lat":-33.88995,"lon":-60.57357,"population":87652,"timezone":"auto"},{"id":"olavarria-01","slug":"olavarria-01","name":"Olavarría","lat":-36.89272,"lon":-60.32254,"population":86320,"timezone":"auto"},{"id":"rio-gallegos-20","slug":"rio-gallegos-20","name":"Río Gallegos","lat":-51.62261,"lon":-69.21813,"population":85700,"timezone":"auto"},{"id":"junin-01","slug":"junin-01","name":"Junín","lat":-34.58382,"lon":-60.94332,"population":85007,"timezone":"auto"},{"id":"san-martin-13","slug":"san-martin-13","name":"San Martín","lat":-33.08103,"lon":-68.46814,"population":82549,"timezone":"auto"},{"id":"presidencia-roque-saenz-pena-03","slug":"presidencia-roque-saenz-pena-03","name":"Presidencia Roque Sáenz Peña","lat":-26.78522,"lon":-60.43876,"population":81879,"timezone":"auto"},{"id":"lujan-01","slug":"lujan-01","name":"Luján","lat":-34.57028,"lon":-59.105,"population":81749,"timezone":"auto"},{"id":"campana-01","slug":"campana-01","name":"Campana","lat":-34.16327,"lon":-58.95919,"population":81612,"timezone":"auto"},{"id":"necochea-01","slug":"necochea-01","name":"Necochea","lat":-38.5545,"lon":-58.73961,"population":80478,"timezone":"auto"},{"id":"gualeguaychu-08","slug":"gualeguaychu-08","name":"Gualeguaychú","lat":-33.00937,"lon":-58.51722,"population":78676,"timezone":"auto"},{"id":"barracas-07","slug":"barracas-07","name":"Barracas","lat":-34.64966,"lon":-58.38341,"population":77474,"timezone":"auto"},{"id":"cipolletti-16","slug":"cipolletti-16","name":"Cipolletti","lat":-38.93392,"lon":-67.99032,"population":75078,"timezone":"auto"},{"id":"gobernador-galvez-21","slug":"gobernador-galvez-21","name":"Gobernador Gálvez","lat":-33.03016,"lon":-60.64045,"population":74650,"timezone":"auto"},{"id":"san-ramon-de-la-nueva-oran-17","slug":"san-ramon-de-la-nueva-oran-17","name":"San Ramón de la Nueva Orán","lat":-23.13705,"lon":-64.32426,"population":74059,"timezone":"auto"},{"id":"chimbas-18","slug":"chimbas-18","name":"Chimbas","lat":-31.48333,"lon":-68.53333,"population":73829,"timezone":"auto"},{"id":"general-roca-16","slug":"general-roca-16","name":"General Roca","lat":-39.03333,"lon":-67.58333,"population":73212,"timezone":"auto"},{"id":"venado-tuerto-21","slug":"venado-tuerto-21","name":"Venado Tuerto","lat":-33.74556,"lon":-61.96885,"population":72340,"timezone":"auto"},{"id":"goya-06","slug":"goya-06","name":"Goya","lat":-29.13995,"lon":-59.26343,"population":70245,"timezone":"auto"},{"id":"villa-carlos-paz-05","slug":"villa-carlos-paz-05","name":"Villa Carlos Paz","lat":-31.42414,"lon":-64.49778,"population":69451,"timezone":"auto"},{"id":"concepcion-del-uruguay-08","slug":"concepcion-del-uruguay-08","name":"Concepción del Uruguay","lat":-32.48463,"lon":-58.23217,"population":67895,"timezone":"auto"},{"id":"don-torcuato-01","slug":"don-torcuato-01","name":"Don Torcuato","lat":-34.49459,"lon":-58.62729,"population":64867,"timezone":"auto"},{"id":"puerto-madryn-04","slug":"puerto-madryn-04","name":"Puerto Madryn","lat":-42.7692,"lon":-65.03851,"population":64555,"timezone":"auto"},{"id":"tartagal-17","slug":"tartagal-17","name":"Tartagal","lat":-22.51637,"lon":-63.80131,"population":60819,"timezone":"auto"},{"id":"hurlingham-01","slug":"hurlingham-01","name":"Hurlingham","lat":-34.5904,"lon":-58.62904,"population":60000,"timezone":"auto"},{"id":"santo-tome-21","slug":"santo-tome-21","name":"Santo Tomé","lat":-31.66274,"lon":-60.7653,"population":59072,"timezone":"auto"},{"id":"san-francisco-05","slug":"san-francisco-05","name":"San Francisco","lat":-31.42797,"lon":-62.08266,"population":59062,"timezone":"auto"},{"id":"san-pedro-de-jujuy-10","slug":"san-pedro-de-jujuy-10","name":"San Pedro de Jujuy","lat":-24.23127,"lon":-64.86614,"population":58430,"timezone":"auto"},{"id":"ushuaia-23","slug":"ushuaia-23","name":"Ushuaia","lat":-54.81084,"lon":-68.31591,"population":58028,"timezone":"auto"},{"id":"punta-alta-01","slug":"punta-alta-01","name":"Punta Alta","lat":-38.87588,"lon":-62.07359,"population":57209,"timezone":"auto"},{"id":"general-pico-11","slug":"general-pico-11","name":"General Pico","lat":-35.65662,"lon":-63.75682,"population":57029,"timezone":"auto"},{"id":"colegiales-07","slug":"colegiales-07","name":"Colegiales","lat":-34.57365,"lon":-58.44924,"population":57000,"timezone":"auto"},{"id":"obera-14","slug":"obera-14","name":"Oberá","lat":-27.48706,"lon":-55.11994,"population":56528,"timezone":"auto"},{"id":"chivilcoy-01","slug":"chivilcoy-01","name":"Chivilcoy","lat":-34.89566,"lon":-60.01667,"population":54514,"timezone":"auto"},{"id":"puerto-eldorado-14","slug":"puerto-eldorado-14","name":"Puerto Eldorado","lat":-26.40843,"lon":-54.69463,"population":54189,"timezone":"auto"},{"id":"azul-01","slug":"azul-01","name":"Azul","lat":-36.77698,"lon":-59.85854,"population":53941,"timezone":"auto"},{"id":"rio-tercero-05","slug":"rio-tercero-05","name":"Río Tercero","lat":-32.17301,"lon":-64.11405,"population":53389,"timezone":"auto"},{"id":"los-polvorines-01","slug":"los-polvorines-01","name":"Los Polvorines","lat":-34.50316,"lon":-58.70596,"population":53354,"timezone":"auto"},{"id":"mercedes-01","slug":"mercedes-01","name":"Mercedes","lat":-34.65145,"lon":-59.43068,"population":52949,"timezone":"auto"},{"id":"rio-grande-23","slug":"rio-grande-23","name":"Río Grande","lat":-53.78769,"lon":-67.70946,"population":52681,"timezone":"auto"},{"id":"barranqueras-03","slug":"barranqueras-03","name":"Barranqueras","lat":-27.48132,"lon":-58.93925,"population":50823,"timezone":"auto"},{"id":"yerba-buena-24","slug":"yerba-buena-24","name":"Yerba Buena","lat":-26.81667,"lon":-65.31667,"population":50783,"timezone":"auto"},{"id":"libertador-general-san-martin-10","slug":"libertador-general-san-martin-10","name":"Libertador General San Martín","lat":-23.80644,"lon":-64.78757,"population":49267,"timezone":"auto"},{"id":"viedma-16","slug":"viedma-16","name":"Viedma","lat":-40.81345,"lon":-62.99668,"population":48940,"timezone":"auto"},{"id":"tafi-viejo-24","slug":"tafi-viejo-24","name":"Tafí Viejo","lat":-26.73201,"lon":-65.25921,"population":48459,"timezone":"auto"},{"id":"boedo-07","slug":"boedo-07","name":"Boedo","lat":-34.63333,"lon":-58.41667,"population":48231,"timezone":"auto"},{"id":"palpala-10","slug":"palpala-10","name":"Palpalá","lat":-24.25647,"lon":-65.21163,"population":48199,"timezone":"auto"},{"id":"san-lorenzo-06","slug":"san-lorenzo-06","name":"San Lorenzo","lat":-28.13306,"lon":-58.76733,"population":47626,"timezone":"auto"},{"id":"san-pedro-01","slug":"san-pedro-01","name":"San Pedro","lat":-33.67918,"lon":-59.66633,"population":47452,"timezone":"auto"},{"id":"cutral-co-15","slug":"cutral-co-15","name":"Cutral-Có","lat":-38.93424,"lon":-69.23052,"population":47380,"timezone":"auto"},{"id":"tres-arroyos-01","slug":"tres-arroyos-01","name":"Tres Arroyos","lat":-38.37394,"lon":-60.27978,"population":47136,"timezone":"auto"},{"id":"san-isidro-01","slug":"san-isidro-01","name":"San Isidro","lat":-34.4721,"lon":-58.52708,"population":45190,"timezone":"auto"},{"id":"villa-constitucion-21","slug":"villa-constitucion-21","name":"Villa Constitución","lat":-33.22778,"lon":-60.3297,"population":44271,"timezone":"auto"},{"id":"paso-de-los-libres-06","slug":"paso-de-los-libres-06","name":"Paso de los Libres","lat":-29.71251,"lon":-57.08771,"population":43805,"timezone":"auto"},{"id":"santa-lucia-18","slug":"santa-lucia-18","name":"Santa Lucía","lat":-31.53987,"lon":-68.49503,"population":43565,"timezone":"auto"},{"id":"villa-angela-03","slug":"villa-angela-03","name":"Villa Ángela","lat":-27.57383,"lon":-60.71526,"population":43511,"timezone":"auto"},{"id":"villa-de-mayo-01","slug":"villa-de-mayo-01","name":"Villa de Mayo","lat":-34.5108,"lon":-58.68059,"population":43405,"timezone":"auto"},{"id":"general-pacheco-01","slug":"general-pacheco-01","name":"General Pacheco","lat":-34.45256,"lon":-58.64312,"population":43287,"timezone":"auto"},{"id":"chilecito-12","slug":"chilecito-12","name":"Chilecito","lat":-29.16195,"lon":-67.4974,"population":42248,"timezone":"auto"},{"id":"lincoln-01","slug":"lincoln-01","name":"Lincoln","lat":-34.86649,"lon":-61.5302,"population":41808,"timezone":"auto"},{"id":"tortuguitas-01","slug":"tortuguitas-01","name":"Tortuguitas","lat":-34.47513,"lon":-58.75367,"population":41390,"timezone":"auto"},{"id":"pocito-18","slug":"pocito-18","name":"Pocito","lat":-31.68333,"lon":-68.58333,"population":40969,"timezone":"auto"},{"id":"alta-gracia-05","slug":"alta-gracia-05","name":"Alta Gracia","lat":-31.65292,"lon":-64.42826,"population":40384,"timezone":"auto"},{"id":"balcarce-01","slug":"balcarce-01","name":"Balcarce","lat":-37.84616,"lon":-58.25522,"population":38823,"timezone":"auto"},{"id":"retiro-07","slug":"retiro-07","name":"Retiro","lat":-34.58333,"lon":-58.38333,"population":38635,"timezone":"auto"},{"id":"ingeniero-pablo-nogues-01","slug":"ingeniero-pablo-nogues-01","name":"Ingeniero Pablo Nogués","lat":-34.47775,"lon":-58.70652,"population":38470,"timezone":"auto"},{"id":"alderetes-24","slug":"alderetes-24","name":"Alderetes","lat":-26.81667,"lon":-65.13333,"population":38466,"timezone":"auto"},{"id":"san-vicente-14","slug":"san-vicente-14","name":"San Vicente","lat":-26.61667,"lon":-54.13333,"population":38247,"timezone":"auto"},{"id":"castelli-03","slug":"castelli-03","name":"Castelli","lat":-25.94679,"lon":-60.61947,"population":36588,"timezone":"auto"},{"id":"curuzu-cuatia-06","slug":"curuzu-cuatia-06","name":"Curuzú Cuatiá","lat":-29.79171,"lon":-58.0546,"population":36390,"timezone":"auto"},{"id":"caleta-olivia-20","slug":"caleta-olivia-20","name":"Caleta Olivia","lat":-46.43929,"lon":-67.52814,"population":36077,"timezone":"auto"},{"id":"canada-de-gomez-21","slug":"canada-de-gomez-21","name":"Cañada de Gómez","lat":-32.81636,"lon":-61.39493,"population":36000,"timezone":"auto"},{"id":"esperanza-21","slug":"esperanza-21","name":"Esperanza","lat":-31.4488,"lon":-60.93173,"population":35885,"timezone":"auto"},{"id":"bell-ville-05","slug":"bell-ville-05","name":"Bell Ville","lat":-32.62591,"lon":-62.68873,"population":35105,"timezone":"auto"},{"id":"nueve-de-julio-01","slug":"nueve-de-julio-01","name":"Nueve de Julio","lat":-35.44437,"lon":-60.88313,"population":34718,"timezone":"auto"},{"id":"chacabuco-01","slug":"chacabuco-01","name":"Chacabuco","lat":-34.64167,"lon":-60.47389,"population":34587,"timezone":"auto"},{"id":"villa-santa-rita-07","slug":"villa-santa-rita-07","name":"Villa Santa Rita","lat":-34.61082,"lon":-58.481,"population":34000,"timezone":"auto"},{"id":"caucete-18","slug":"caucete-18","name":"Caucete","lat":-31.65179,"lon":-68.28105,"population":33609,"timezone":"auto"},{"id":"pontevedra-01","slug":"pontevedra-01","name":"Pontevedra","lat":-34.74785,"lon":-58.70072,"population":33515,"timezone":"auto"},{"id":"gualeguay-08","slug":"gualeguay-08","name":"Gualeguay","lat":-33.14156,"lon":-59.30966,"population":33120,"timezone":"auto"},{"id":"aguilares-24","slug":"aguilares-24","name":"Aguilares","lat":-27.4338,"lon":-65.61427,"population":32494,"timezone":"auto"},{"id":"granadero-baigorria-21","slug":"granadero-baigorria-21","name":"Granadero Baigorria","lat":-32.85683,"lon":-60.71754,"population":32427,"timezone":"auto"},{"id":"quitilipi-03","slug":"quitilipi-03","name":"Quitilipi","lat":-26.86913,"lon":-60.21683,"population":32083,"timezone":"auto"},{"id":"puerto-iguazu-14","slug":"puerto-iguazu-14","name":"Puerto Iguazú","lat":-25.59912,"lon":-54.57355,"population":32038,"timezone":"auto"},{"id":"villaguay-08","slug":"villaguay-08","name":"Villaguay","lat":-31.8653,"lon":-59.02689,"population":32027,"timezone":"auto"},{"id":"casilda-21","slug":"casilda-21","name":"Casilda","lat":-33.04417,"lon":-61.16806,"population":32002,"timezone":"auto"},{"id":"general-jose-de-san-martin-03","slug":"general-jose-de-san-martin-03","name":"General José de San Martín","lat":-26.53743,"lon":-59.34158,"population":31758,"timezone":"auto"},{"id":"zapala-15","slug":"zapala-15","name":"Zapala","lat":-38.89916,"lon":-70.05442,"population":31534,"timezone":"auto"},{"id":"villa-regina-16","slug":"villa-regina-16","name":"Villa Regina","lat":-39.1,"lon":-67.06667,"population":31209,"timezone":"auto"},{"id":"tigre-01","slug":"tigre-01","name":"Tigre","lat":-34.42603,"lon":-58.57962,"population":31106,"timezone":"auto"},{"id":"famailla-24","slug":"famailla-24","name":"Famaillá","lat":-27.05413,"lon":-65.40329,"population":30951,"timezone":"auto"},{"id":"chajari-08","slug":"chajari-08","name":"Chajarí","lat":-30.75048,"lon":-57.97962,"population":30655,"timezone":"auto"},{"id":"mercedes-06","slug":"mercedes-06","name":"Mercedes","lat":-29.18416,"lon":-58.07519,"population":30649,"timezone":"auto"},{"id":"centenario-15","slug":"centenario-15","name":"Centenario","lat":-38.82955,"lon":-68.1318,"population":28956,"timezone":"auto"},{"id":"garupa-14","slug":"garupa-14","name":"Garupá","lat":-27.48171,"lon":-55.82921,"population":28814,"timezone":"auto"},{"id":"gobernador-virasora-06","slug":"gobernador-virasora-06","name":"Gobernador Virasora","lat":-28.05,"lon":-56.03333,"population":28756,"timezone":"auto"},{"id":"esquel-04","slug":"esquel-04","name":"Esquel","lat":-42.91147,"lon":-71.31947,"population":28486,"timezone":"auto"},{"id":"adrogue-01","slug":"adrogue-01","name":"Adrogué","lat":-34.80041,"lon":-58.38384,"population":28265,"timezone":"auto"},{"id":"cruz-del-eje-05","slug":"cruz-del-eje-05","name":"Cruz del Eje","lat":-30.72644,"lon":-64.80387,"population":28166,"timezone":"auto"},{"id":"machagai-03","slug":"machagai-03","name":"Machagai","lat":-26.92614,"lon":-60.04955,"population":28070,"timezone":"auto"},{"id":"villa-dolores-05","slug":"villa-dolores-05","name":"Villa Dolores","lat":-31.94585,"lon":-65.18958,"population":28009,"timezone":"auto"},{"id":"termas-de-rio-hondo-22","slug":"termas-de-rio-hondo-22","name":"Termas de Río Hondo","lat":-27.49362,"lon":-64.85972,"population":27838,"timezone":"auto"},{"id":"charata-03","slug":"charata-03","name":"Charata","lat":-27.21438,"lon":-61.18795,"population":27813,"timezone":"auto"},{"id":"capitan-bermudez-21","slug":"capitan-bermudez-21","name":"Capitán Bermúdez","lat":-32.82262,"lon":-60.71852,"population":27060,"timezone":"auto"},{"id":"coronel-suarez-01","slug":"coronel-suarez-01","name":"Coronel Suárez","lat":-37.45467,"lon":-61.93343,"population":27000,"timezone":"auto"},{"id":"las-brenas-03","slug":"las-brenas-03","name":"Las Breñas","lat":-27.08966,"lon":-61.08161,"population":26955,"timezone":"auto"},{"id":"jesus-maria-05","slug":"jesus-maria-05","name":"Jesús María","lat":-30.98153,"lon":-64.09424,"population":26825,"timezone":"auto"},{"id":"fontana-03","slug":"fontana-03","name":"Fontana","lat":-27.41813,"lon":-59.02392,"population":26745,"timezone":"auto"},{"id":"esquina-06","slug":"esquina-06","name":"Esquina","lat":-30.01476,"lon":-59.5289,"population":26399,"timezone":"auto"},{"id":"rawson-04","slug":"rawson-04","name":"Rawson","lat":-43.30016,"lon":-65.10228,"population":26335,"timezone":"auto"},{"id":"muniz-01","slug":"muniz-01","name":"Muñiz","lat":-34.55622,"lon":-58.70739,"population":26221,"timezone":"auto"},{"id":"allen-16","slug":"allen-16","name":"Allen","lat":-38.97736,"lon":-67.82714,"population":26083,"timezone":"auto"},{"id":"dolores-01","slug":"dolores-01","name":"Dolores","lat":-36.31321,"lon":-57.67918,"population":25190,"timezone":"auto"},{"id":"plottier-15","slug":"plottier-15","name":"Plottier","lat":-38.96667,"lon":-68.23333,"population":25186,"timezone":"auto"},{"id":"victoria-08","slug":"victoria-08","name":"Victoria","lat":-32.61841,"lon":-60.15478,"population":25139,"timezone":"auto"},{"id":"jardin-america-14","slug":"jardin-america-14","name":"Jardín América","lat":-27.04346,"lon":-55.22698,"population":24905,"timezone":"auto"},{"id":"la-calera-05","slug":"la-calera-05","name":"La Calera","lat":-31.34377,"lon":-64.33529,"population":24796,"timezone":"auto"},{"id":"tres-isletas-03","slug":"tres-isletas-03","name":"Tres Isletas","lat":-26.34067,"lon":-60.43207,"population":24747,"timezone":"auto"},{"id":"la-paz-08","slug":"la-paz-08","name":"La Paz","lat":-30.74179,"lon":-59.64517,"population":24716,"timezone":"auto"},{"id":"monte-caseros-06","slug":"monte-caseros-06","name":"Monte Caseros","lat":-30.25359,"lon":-57.63626,"population":24671,"timezone":"auto"},{"id":"veinticinco-de-mayo-01","slug":"veinticinco-de-mayo-01","name":"Veinticinco de Mayo","lat":-35.4323,"lon":-60.17271,"population":24668,"timezone":"auto"},{"id":"perez-21","slug":"perez-21","name":"Pérez","lat":-32.99835,"lon":-60.76791,"population":24436,"timezone":"auto"},{"id":"marcos-juarez-05","slug":"marcos-juarez-05","name":"Marcos Juárez","lat":-32.6978,"lon":-62.10672,"population":24226,"timezone":"auto"},{"id":"embarcacion-17","slug":"embarcacion-17","name":"Embarcación","lat":-23.21003,"lon":-64.09965,"population":23961,"timezone":"auto"},{"id":"monteros-24","slug":"monteros-24","name":"Monteros","lat":-27.16741,"lon":-65.49832,"population":23771,"timezone":"auto"},{"id":"san-pedro-14","slug":"san-pedro-14","name":"San Pedro","lat":-26.62207,"lon":-54.10842,"population":23736,"timezone":"auto"},{"id":"san-martin-de-los-andes-15","slug":"san-martin-de-los-andes-15","name":"San Martín de los Andes","lat":-40.15789,"lon":-71.35337,"population":23519,"timezone":"auto"},{"id":"villa-gesell-01","slug":"villa-gesell-01","name":"Villa Gesell","lat":-37.26394,"lon":-56.97304,"population":23257,"timezone":"auto"},{"id":"avellaneda-21","slug":"avellaneda-21","name":"Avellaneda","lat":-29.11761,"lon":-59.65834,"population":23077,"timezone":"auto"},{"id":"santo-tome-06","slug":"santo-tome-06","name":"Santo Tomé","lat":-28.54939,"lon":-56.04077,"population":22634,"timezone":"auto"},{"id":"villa-ortuzar-07","slug":"villa-ortuzar-07","name":"Villa Ortúzar","lat":-34.57973,"lon":-58.46829,"population":22500,"timezone":"auto"},{"id":"montecarlo-14","slug":"montecarlo-14","name":"Montecarlo","lat":-26.5662,"lon":-54.757,"population":22229,"timezone":"auto"},{"id":"san-justo-21","slug":"san-justo-21","name":"San Justo","lat":-30.78913,"lon":-60.59189,"population":21809,"timezone":"auto"},{"id":"villa-allende-05","slug":"villa-allende-05","name":"Villa Allende","lat":-31.29458,"lon":-64.29538,"population":21683,"timezone":"auto"},{"id":"san-jose-de-jachal-18","slug":"san-jose-de-jachal-18","name":"San José de Jáchal","lat":-30.24057,"lon":-68.74693,"population":21018,"timezone":"auto"},{"id":"aristobulo-del-valle-14","slug":"aristobulo-del-valle-14","name":"Aristóbulo del Valle","lat":-27.09625,"lon":-54.89626,"population":20683,"timezone":"auto"},{"id":"albardon-18","slug":"albardon-18","name":"Albardón","lat":-31.43722,"lon":-68.52556,"population":20413,"timezone":"auto"},{"id":"anatuya-22","slug":"anatuya-22","name":"Añatuya","lat":-28.46064,"lon":-62.83472,"population":20261,"timezone":"auto"},{"id":"dean-funes-05","slug":"dean-funes-05","name":"Deán Funes","lat":-30.42036,"lon":-64.34984,"population":20164,"timezone":"auto"},{"id":"arroyo-seco-21","slug":"arroyo-seco-21","name":"Arroyo Seco","lat":-33.15489,"lon":-60.50863,"population":20008,"timezone":"auto"},{"id":"laboulaye-05","slug":"laboulaye-05","name":"Laboulaye","lat":-34.12662,"lon":-63.39119,"population":19908,"timezone":"auto"},{"id":"cinco-saltos-16","slug":"cinco-saltos-16","name":"Cinco Saltos","lat":-38.82225,"lon":-68.06293,"population":19819,"timezone":"auto"},{"id":"general-enrique-mosconi-17","slug":"general-enrique-mosconi-17","name":"General Enrique Mosconi","lat":-22.59588,"lon":-63.81255,"population":19811,"timezone":"auto"},{"id":"vera-21","slug":"vera-21","name":"Vera","lat":-29.4593,"lon":-60.21261,"population":19797,"timezone":"auto"},{"id":"arroyito-05","slug":"arroyito-05","name":"Arroyito","lat":-31.42022,"lon":-63.05002,"population":19577,"timezone":"auto"},{"id":"el-soberbio-14","slug":"el-soberbio-14","name":"El Soberbio","lat":-27.29847,"lon":-54.19877,"population":19571,"timezone":"auto"},{"id":"diamante-08","slug":"diamante-08","name":"Diamante","lat":-32.06641,"lon":-60.63837,"population":19545,"timezone":"auto"},{"id":"joaquin-v-gonzalez-17","slug":"joaquin-v-gonzalez-17","name":"Joaquín V. González","lat":-25.11364,"lon":-64.12628,"population":19185,"timezone":"auto"},{"id":"pirane-09","slug":"pirane-09","name":"Pirané","lat":-25.73239,"lon":-59.10879,"population":19124,"timezone":"auto"},{"id":"villa-ocampo-21","slug":"villa-ocampo-21","name":"Villa Ocampo","lat":-28.48752,"lon":-59.35515,"population":19101,"timezone":"auto"},{"id":"villa-paula-de-sarmiento-18","slug":"villa-paula-de-sarmiento-18","name":"Villa Paula de Sarmiento","lat":-31.4933,"lon":-68.53838,"population":19092,"timezone":"auto"},{"id":"cosquin-05","slug":"cosquin-05","name":"Cosquín","lat":-31.24508,"lon":-64.46563,"population":19070,"timezone":"auto"},{"id":"sunchales-21","slug":"sunchales-21","name":"Sunchales","lat":-30.94404,"lon":-61.56148,"population":18757,"timezone":"auto"},{"id":"santa-elena-08","slug":"santa-elena-08","name":"Santa Elena","lat":-30.94432,"lon":-59.78832,"population":18410,"timezone":"auto"},{"id":"galvez-21","slug":"galvez-21","name":"Gálvez","lat":-32.02927,"lon":-61.22103,"population":18374,"timezone":"auto"},{"id":"rufino-21","slug":"rufino-21","name":"Rufino","lat":-34.26827,"lon":-62.71262,"population":18361,"timezone":"auto"},{"id":"saladas-06","slug":"saladas-06","name":"Saladas","lat":-28.25384,"lon":-58.62591,"population":18349,"timezone":"auto"},{"id":"crespo-08","slug":"crespo-08","name":"Crespo","lat":-32.02873,"lon":-60.30658,"population":18296,"timezone":"auto"},{"id":"firmat-21","slug":"firmat-21","name":"Firmat","lat":-33.45937,"lon":-61.4832,"population":18294,"timezone":"auto"},{"id":"rio-segundo-05","slug":"rio-segundo-05","name":"Río Segundo","lat":-31.6526,"lon":-63.9099,"population":18155,"timezone":"auto"},{"id":"puerto-rico-14","slug":"puerto-rico-14","name":"Puerto Rico","lat":-26.79598,"lon":-55.02402,"population":17491,"timezone":"auto"},{"id":"coronda-21","slug":"coronda-21","name":"Coronda","lat":-31.97263,"lon":-60.91983,"population":16975,"timezone":"auto"},{"id":"san-antonio-oeste-16","slug":"san-antonio-oeste-16","name":"San Antonio Oeste","lat":-40.73193,"lon":-64.94769,"population":16966,"timezone":"auto"},{"id":"san-jorge-21","slug":"san-jorge-21","name":"San Jorge","lat":-31.89618,"lon":-61.85984,"population":16873,"timezone":"auto"},{"id":"villa-nueva-05","slug":"villa-nueva-05","name":"Villa Nueva","lat":-32.43293,"lon":-63.24763,"population":16841,"timezone":"auto"},{"id":"rio-ceballos-05","slug":"rio-ceballos-05","name":"Río Ceballos","lat":-31.16486,"lon":-64.32241,"population":16632,"timezone":"auto"},{"id":"federal-08","slug":"federal-08","name":"Federal","lat":-30.95465,"lon":-58.78326,"population":16333,"timezone":"auto"},{"id":"general-villegas-01","slug":"general-villegas-01","name":"General Villegas","lat":-35.03285,"lon":-63.01252,"population":16270,"timezone":"auto"},{"id":"embalse-05","slug":"embalse-05","name":"Embalse","lat":-32.18,"lon":-64.41809,"population":15900,"timezone":"auto"},{"id":"general-pinedo-03","slug":"general-pinedo-03","name":"General Pinedo","lat":-27.31667,"lon":-61.28333,"population":15741,"timezone":"auto"},{"id":"carcarana-21","slug":"carcarana-21","name":"Carcarañá","lat":-32.85679,"lon":-61.15331,"population":15619,"timezone":"auto"},{"id":"san-javier-21","slug":"san-javier-21","name":"San Javier","lat":-30.57781,"lon":-59.9317,"population":15606,"timezone":"auto"},{"id":"puerto-esperanza-14","slug":"puerto-esperanza-14","name":"Puerto Esperanza","lat":-26.02267,"lon":-54.61356,"population":15579,"timezone":"auto"},{"id":"el-bolson-16","slug":"el-bolson-16","name":"El Bolsón","lat":-41.96051,"lon":-71.53336,"population":15537,"timezone":"auto"},{"id":"wanda-14","slug":"wanda-14","name":"Wanda","lat":-25.96879,"lon":-54.56285,"population":15529,"timezone":"auto"},{"id":"unquillo-05","slug":"unquillo-05","name":"Unquillo","lat":-31.23073,"lon":-64.31615,"population":15369,"timezone":"auto"},{"id":"san-luis-del-palmar-06","slug":"san-luis-del-palmar-06","name":"San Luis del Palmar","lat":-27.5079,"lon":-58.55454,"population":15347,"timezone":"auto"},{"id":"catriel-16","slug":"catriel-16","name":"Catriel","lat":-37.87907,"lon":-67.7956,"population":15169,"timezone":"auto"},{"id":"morteros-05","slug":"morteros-05","name":"Morteros","lat":-30.71164,"lon":-61.99862,"population":15129,"timezone":"auto"},{"id":"bella-vista-24","slug":"bella-vista-24","name":"Bella Vista","lat":-27.03424,"lon":-65.30196,"population":15126,"timezone":"auto"},{"id":"la-falda-05","slug":"la-falda-05","name":"La Falda","lat":-31.08841,"lon":-64.48987,"population":15112,"timezone":"auto"},{"id":"clorinda-09","slug":"clorinda-09","name":"Clorinda","lat":-25.28481,"lon":-57.71851,"population":15000,"timezone":"auto"},{"id":"la-punta-19","slug":"la-punta-19","name":"La Punta","lat":-33.18368,"lon":-66.3127,"population":15000,"timezone":"auto"}]},{"id":"as","iso2":"AS","label":"AS","type":"cities","timezone":"auto","cities":[{"id":"pago-pago-010","slug":"pago-pago-010","name":"Pago Pago","lat":-14.27806,"lon":-170.7025,"population":11500,"timezone":"auto"}]},{"id":"at","iso2":"AT","label":"Austria","type":"cities","timezone":"auto","cities":[{"id":"vienna-09","slug":"vienna-09","name":"Vienna","lat":48.20849,"lon":16.37208,"population":1691468,"timezone":"auto"},{"id":"graz-06","slug":"graz-06","name":"Graz","lat":47.06667,"lon":15.45,"population":222326,"timezone":"auto"},{"id":"linz-04","slug":"linz-04","name":"Linz","lat":48.30639,"lon":14.28611,"population":204846,"timezone":"auto"},{"id":"favoriten-09","slug":"favoriten-09","name":"Favoriten","lat":48.16116,"lon":16.38233,"population":201882,"timezone":"auto"},{"id":"donaustadt-09","slug":"donaustadt-09","name":"Donaustadt","lat":48.2333,"lon":16.46002,"population":187007,"timezone":"auto"},{"id":"floridsdorf-09","slug":"floridsdorf-09","name":"Floridsdorf","lat":48.25,"lon":16.4,"population":162779,"timezone":"auto"},{"id":"salzburg-05","slug":"salzburg-05","name":"Salzburg","lat":47.79941,"lon":13.04399,"population":153377,"timezone":"auto"},{"id":"innsbruck-07","slug":"innsbruck-07","name":"Innsbruck","lat":47.26266,"lon":11.39454,"population":132493,"timezone":"auto"},{"id":"ottakring-09","slug":"ottakring-09","name":"Ottakring","lat":48.21667,"lon":16.3,"population":104627,"timezone":"auto"},{"id":"simmering-09","slug":"simmering-09","name":"Simmering","lat":48.18333,"lon":16.43333,"population":101420,"timezone":"auto"},{"id":"meidling-09","slug":"meidling-09","name":"Meidling","lat":48.16667,"lon":16.33333,"population":97624,"timezone":"auto"},{"id":"klagenfurt-am-worthersee-02","slug":"klagenfurt-am-worthersee-02","name":"Klagenfurt am Wörthersee","lat":46.62472,"lon":14.30528,"population":90610,"timezone":"auto"},{"id":"villach-02","slug":"villach-02","name":"Villach","lat":46.61028,"lon":13.85583,"population":58882,"timezone":"auto"},{"id":"hernals-09","slug":"hernals-09","name":"Hernals","lat":48.23333,"lon":16.26667,"population":57546,"timezone":"auto"},{"id":"hietzing-09","slug":"hietzing-09","name":"Hietzing","lat":48.18623,"lon":16.2965,"population":54265,"timezone":"auto"},{"id":"dornbirn-08","slug":"dornbirn-08","name":"Dornbirn","lat":47.41427,"lon":9.74195,"population":49278,"timezone":"auto"},{"id":"wiener-neustadt-03","slug":"wiener-neustadt-03","name":"Wiener Neustadt","lat":47.80485,"lon":16.23196,"population":44820,"timezone":"auto"},{"id":"steyr-04","slug":"steyr-04","name":"Steyr","lat":48.04274,"lon":14.42127,"population":38331,"timezone":"auto"},{"id":"hotting-07","slug":"hotting-07","name":"Hötting","lat":47.26815,"lon":11.36868,"population":35043,"timezone":"auto"},{"id":"feldkirch-08","slug":"feldkirch-08","name":"Feldkirch","lat":47.23306,"lon":9.6,"population":33420,"timezone":"auto"},{"id":"jakomini-06","slug":"jakomini-06","name":"Jakomini","lat":47.05441,"lon":15.44984,"population":32912,"timezone":"auto"},{"id":"pradl-07","slug":"pradl-07","name":"Pradl","lat":47.26539,"lon":11.4152,"population":32588,"timezone":"auto"},{"id":"lend-06","slug":"lend-06","name":"Lend","lat":47.08256,"lon":15.41589,"population":31147,"timezone":"auto"},{"id":"bregenz-08","slug":"bregenz-08","name":"Bregenz","lat":47.50311,"lon":9.7471,"population":29471,"timezone":"auto"},{"id":"gries-06","slug":"gries-06","name":"Gries","lat":47.06236,"lon":15.42421,"population":29363,"timezone":"auto"},{"id":"baden-03","slug":"baden-03","name":"Baden","lat":48.00543,"lon":16.23264,"population":26286,"timezone":"auto"},{"id":"geidorf-06","slug":"geidorf-06","name":"Geidorf","lat":47.08393,"lon":15.444,"population":24767,"timezone":"auto"},{"id":"weinzierl-bei-krems-03","slug":"weinzierl-bei-krems-03","name":"Weinzierl bei Krems","lat":48.4,"lon":15.6,"population":24092,"timezone":"auto"},{"id":"lustenau-08","slug":"lustenau-08","name":"Lustenau","lat":47.42642,"lon":9.65851,"population":22821,"timezone":"auto"},{"id":"sankt-polten-03","slug":"sankt-polten-03","name":"Sankt Pölten","lat":48.2,"lon":15.63333,"population":21911,"timezone":"auto"},{"id":"modling-03","slug":"modling-03","name":"Mödling","lat":48.08605,"lon":16.28921,"population":20555,"timezone":"auto"},{"id":"eggenberg-06","slug":"eggenberg-06","name":"Eggenberg","lat":47.07,"lon":15.39871,"population":20511,"timezone":"auto"},{"id":"sankt-peter-02","slug":"sankt-peter-02","name":"Sankt Peter","lat":46.62978,"lon":14.34016,"population":20320,"timezone":"auto"},{"id":"sankt-martin-02","slug":"sankt-martin-02","name":"Sankt Martin","lat":46.61667,"lon":14.28333,"population":20000,"timezone":"auto"},{"id":"andritz-06","slug":"andritz-06","name":"Andritz","lat":47.11387,"lon":15.42348,"population":19020,"timezone":"auto"},{"id":"wilten-07","slug":"wilten-07","name":"Wilten","lat":47.25829,"lon":11.38808,"population":18142,"timezone":"auto"},{"id":"wels-04","slug":"wels-04","name":"Wels","lat":48.16667,"lon":14.03333,"population":16857,"timezone":"auto"},{"id":"innere-stadt-09","slug":"innere-stadt-09","name":"Innere Stadt","lat":48.20906,"lon":16.37135,"population":16450,"timezone":"auto"},{"id":"hohenems-08","slug":"hohenems-08","name":"Hohenems","lat":47.36667,"lon":9.68306,"population":16317,"timezone":"auto"},{"id":"stockerau-03","slug":"stockerau-03","name":"Stockerau","lat":48.38333,"lon":16.21667,"population":16292,"timezone":"auto"},{"id":"stra-gang-06","slug":"stra-gang-06","name":"Straßgang","lat":47.03333,"lon":15.4,"population":16268,"timezone":"auto"},{"id":"sankt-leonhard-06","slug":"sankt-leonhard-06","name":"Sankt Leonhard","lat":47.06924,"lon":15.45784,"population":15853,"timezone":"auto"},{"id":"wetzelsdorf-06","slug":"wetzelsdorf-06","name":"Wetzelsdorf","lat":47.05293,"lon":15.39923,"population":15687,"timezone":"auto"},{"id":"klosterneuburg-03","slug":"klosterneuburg-03","name":"Klosterneuburg","lat":48.30521,"lon":16.32522,"population":15614,"timezone":"auto"},{"id":"amstetten-03","slug":"amstetten-03","name":"Amstetten","lat":48.1229,"lon":14.87206,"population":15559,"timezone":"auto"},{"id":"telfs-07","slug":"telfs-07","name":"Telfs","lat":47.30707,"lon":11.06817,"population":15229,"timezone":"auto"},{"id":"sankt-peter-06","slug":"sankt-peter-06","name":"Sankt Peter","lat":47.05,"lon":15.46667,"population":15187,"timezone":"auto"},{"id":"perchtoldsdorf-03","slug":"perchtoldsdorf-03","name":"Perchtoldsdorf","lat":48.11935,"lon":16.26607,"population":15047,"timezone":"auto"}]},{"id":"au","iso2":"AU","label":"Australia","type":"cities","timezone":"auto","cities":[{"id":"sydney-02","slug":"sydney-02","name":"Sydney","lat":-33.86785,"lon":151.20732,"population":4627345,"timezone":"auto"},{"id":"melbourne-07","slug":"melbourne-07","name":"Melbourne","lat":-37.814,"lon":144.96332,"population":4246375,"timezone":"auto"},{"id":"brisbane-04","slug":"brisbane-04","name":"Brisbane","lat":-27.46794,"lon":153.02809,"population":2189878,"timezone":"auto"},{"id":"perth-08","slug":"perth-08","name":"Perth","lat":-31.95224,"lon":115.8614,"population":1896548,"timezone":"auto"},{"id":"adelaide-05","slug":"adelaide-05","name":"Adelaide","lat":-34.92866,"lon":138.59863,"population":1225235,"timezone":"auto"},{"id":"gold-coast-04","slug":"gold-coast-04","name":"Gold Coast","lat":-28.00029,"lon":153.43088,"population":591473,"timezone":"auto"},{"id":"canberra-01","slug":"canberra-01","name":"Canberra","lat":-35.28346,"lon":149.12807,"population":367752,"timezone":"auto"},{"id":"newcastle-02","slug":"newcastle-02","name":"Newcastle","lat":-32.92953,"lon":151.7801,"population":308308,"timezone":"auto"},{"id":"wollongong-02","slug":"wollongong-02","name":"Wollongong","lat":-34.424,"lon":150.89345,"population":292190,"timezone":"auto"},{"id":"logan-city-04","slug":"logan-city-04","name":"Logan City","lat":-27.63917,"lon":153.10944,"population":282673,"timezone":"auto"},{"id":"geelong-07","slug":"geelong-07","name":"Geelong","lat":-38.14711,"lon":144.36069,"population":226034,"timezone":"auto"},{"id":"hobart-06","slug":"hobart-06","name":"Hobart","lat":-42.87936,"lon":147.32941,"population":216656,"timezone":"auto"},{"id":"townsville-04","slug":"townsville-04","name":"Townsville","lat":-19.26639,"lon":146.80569,"population":196219,"timezone":"auto"},{"id":"cairns-04","slug":"cairns-04","name":"Cairns","lat":-16.92366,"lon":145.76613,"population":153075,"timezone":"auto"},{"id":"toowoomba-04","slug":"toowoomba-04","name":"Toowoomba","lat":-27.56056,"lon":151.95386,"population":131258,"timezone":"auto"},{"id":"darwin-03","slug":"darwin-03","name":"Darwin","lat":-12.46113,"lon":130.84185,"population":129062,"timezone":"auto"},{"id":"rockingham-08","slug":"rockingham-08","name":"Rockingham","lat":-32.27682,"lon":115.72978,"population":108022,"timezone":"auto"},{"id":"launceston-06","slug":"launceston-06","name":"Launceston","lat":-41.43876,"lon":147.13467,"population":106153,"timezone":"auto"},{"id":"bendigo-07","slug":"bendigo-07","name":"Bendigo","lat":-36.75818,"lon":144.28024,"population":100617,"timezone":"auto"},{"id":"ballarat-07","slug":"ballarat-07","name":"Ballarat","lat":-37.56622,"lon":143.84957,"population":97937,"timezone":"auto"},{"id":"mandurah-08","slug":"mandurah-08","name":"Mandurah","lat":-32.5269,"lon":115.7217,"population":83294,"timezone":"auto"},{"id":"mackay-04","slug":"mackay-04","name":"Mackay","lat":-21.15345,"lon":149.16554,"population":74219,"timezone":"auto"},{"id":"bundaberg-04","slug":"bundaberg-04","name":"Bundaberg","lat":-24.86621,"lon":152.3479,"population":70826,"timezone":"auto"},{"id":"bunbury-08","slug":"bunbury-08","name":"Bunbury","lat":-33.32711,"lon":115.64137,"population":68248,"timezone":"auto"},{"id":"maitland-02","slug":"maitland-02","name":"Maitland","lat":-32.73308,"lon":151.5574,"population":67132,"timezone":"auto"},{"id":"rockhampton-04","slug":"rockhampton-04","name":"Rockhampton","lat":-23.38032,"lon":150.50595,"population":61724,"timezone":"auto"},{"id":"adelaide-hills-05","slug":"adelaide-hills-05","name":"Adelaide Hills","lat":-34.91119,"lon":138.70735,"population":60394,"timezone":"auto"},{"id":"melbourne-city-centre-07","slug":"melbourne-city-centre-07","name":"Melbourne City Centre","lat":-37.81501,"lon":144.96657,"population":60057,"timezone":"auto"},{"id":"hervey-bay-04","slug":"hervey-bay-04","name":"Hervey Bay","lat":-25.28762,"lon":152.76936,"population":52230,"timezone":"auto"},{"id":"reservoir-07","slug":"reservoir-07","name":"Reservoir","lat":-37.71667,"lon":145,"population":50092,"timezone":"auto"},{"id":"craigieburn-07","slug":"craigieburn-07","name":"Craigieburn","lat":-37.6,"lon":144.95,"population":50069,"timezone":"auto"},{"id":"point-cook-07","slug":"point-cook-07","name":"Point Cook","lat":-37.91482,"lon":144.75088,"population":49436,"timezone":"auto"},{"id":"tamworth-02","slug":"tamworth-02","name":"Tamworth","lat":-31.09048,"lon":150.92905,"population":47597,"timezone":"auto"},{"id":"berwick-07","slug":"berwick-07","name":"Berwick","lat":-38.03333,"lon":145.35,"population":47074,"timezone":"auto"},{"id":"blacktown-02","slug":"blacktown-02","name":"Blacktown","lat":-33.76667,"lon":150.91667,"population":46942,"timezone":"auto"},{"id":"pakenham-07","slug":"pakenham-07","name":"Pakenham","lat":-38.07018,"lon":145.47411,"population":45895,"timezone":"auto"},{"id":"port-macquarie-02","slug":"port-macquarie-02","name":"Port Macquarie","lat":-31.43084,"lon":152.90894,"population":45692,"timezone":"auto"},{"id":"glen-waverley-07","slug":"glen-waverley-07","name":"Glen Waverley","lat":-37.87811,"lon":145.16476,"population":40238,"timezone":"auto"},{"id":"werribee-07","slug":"werribee-07","name":"Werribee","lat":-37.9,"lon":144.66667,"population":40143,"timezone":"auto"},{"id":"dubbo-02","slug":"dubbo-02","name":"Dubbo","lat":-32.24295,"lon":148.60484,"population":39863,"timezone":"auto"},{"id":"castle-hill-02","slug":"castle-hill-02","name":"Castle Hill","lat":-33.73333,"lon":151,"population":39284,"timezone":"auto"},{"id":"orange-02","slug":"orange-02","name":"Orange","lat":-33.28397,"lon":149.10018,"population":38408,"timezone":"auto"},{"id":"hoppers-crossing-07","slug":"hoppers-crossing-07","name":"Hoppers Crossing","lat":-37.88264,"lon":144.7003,"population":38178,"timezone":"auto"},{"id":"st-albans-07","slug":"st-albans-07","name":"St Albans","lat":-37.74496,"lon":144.80049,"population":37629,"timezone":"auto"},{"id":"auburn-02","slug":"auburn-02","name":"Auburn","lat":-33.85,"lon":151.03333,"population":37245,"timezone":"auto"},{"id":"baulkham-hills-02","slug":"baulkham-hills-02","name":"Baulkham Hills","lat":-33.75881,"lon":150.99292,"population":36792,"timezone":"auto"},{"id":"frankston-07","slug":"frankston-07","name":"Frankston","lat":-38.14458,"lon":145.12291,"population":36239,"timezone":"auto"},{"id":"sunbury-07","slug":"sunbury-07","name":"Sunbury","lat":-37.57742,"lon":144.72607,"population":35449,"timezone":"auto"},{"id":"saint-albans-07","slug":"saint-albans-07","name":"Saint Albans","lat":-37.73333,"lon":144.8,"population":35091,"timezone":"auto"},{"id":"frankston-east-07","slug":"frankston-east-07","name":"Frankston East","lat":-38.13333,"lon":145.13333,"population":34457,"timezone":"auto"},{"id":"tarneit-07","slug":"tarneit-07","name":"Tarneit","lat":-37.83634,"lon":144.65952,"population":34372,"timezone":"auto"},{"id":"albany-08","slug":"albany-08","name":"Albany","lat":-35.02692,"lon":117.88369,"population":33650,"timezone":"auto"},{"id":"rowville-07","slug":"rowville-07","name":"Rowville","lat":-37.93333,"lon":145.23333,"population":33160,"timezone":"auto"},{"id":"mount-waverley-07","slug":"mount-waverley-07","name":"Mount Waverley","lat":-37.87709,"lon":145.12939,"population":33149,"timezone":"auto"},{"id":"bathurst-02","slug":"bathurst-02","name":"Bathurst","lat":-33.41665,"lon":149.5806,"population":33110,"timezone":"auto"},{"id":"southport-04","slug":"southport-04","name":"Southport","lat":-27.96724,"lon":153.39796,"population":32965,"timezone":"auto"},{"id":"mildura-07","slug":"mildura-07","name":"Mildura","lat":-34.18551,"lon":142.16251,"population":32936,"timezone":"auto"},{"id":"epping-07","slug":"epping-07","name":"Epping","lat":-37.65,"lon":145.03333,"population":32696,"timezone":"auto"},{"id":"canning-vale-08","slug":"canning-vale-08","name":"Canning Vale","lat":-32.05799,"lon":115.91814,"population":32593,"timezone":"auto"},{"id":"preston-07","slug":"preston-07","name":"Preston","lat":-37.75,"lon":145.01667,"population":32499,"timezone":"auto"},{"id":"bankstown-02","slug":"bankstown-02","name":"Bankstown","lat":-33.91667,"lon":151.03333,"population":32399,"timezone":"auto"},{"id":"shepparton-07","slug":"shepparton-07","name":"Shepparton","lat":-36.38047,"lon":145.39867,"population":31148,"timezone":"auto"},{"id":"surfers-paradise-04","slug":"surfers-paradise-04","name":"Surfers Paradise","lat":-28.00274,"lon":153.42999,"population":31073,"timezone":"auto"},{"id":"noble-park-07","slug":"noble-park-07","name":"Noble Park","lat":-37.96667,"lon":145.16667,"population":30921,"timezone":"auto"},{"id":"randwick-02","slug":"randwick-02","name":"Randwick","lat":-33.91439,"lon":151.24895,"population":30532,"timezone":"auto"},{"id":"gladstone-04","slug":"gladstone-04","name":"Gladstone","lat":-23.84852,"lon":151.25775,"population":30489,"timezone":"auto"},{"id":"baldivis-08","slug":"baldivis-08","name":"Baldivis","lat":-32.32889,"lon":115.83047,"population":30472,"timezone":"auto"},{"id":"kwinana-08","slug":"kwinana-08","name":"Kwinana","lat":-32.23013,"lon":115.78128,"population":30433,"timezone":"auto"},{"id":"maroubra-02","slug":"maroubra-02","name":"Maroubra","lat":-33.95,"lon":151.23333,"population":30224,"timezone":"auto"},{"id":"dandenong-07","slug":"dandenong-07","name":"Dandenong","lat":-37.98333,"lon":145.2,"population":30193,"timezone":"auto"},{"id":"narre-warren-south-07","slug":"narre-warren-south-07","name":"Narre Warren South","lat":-38.04369,"lon":145.2923,"population":30132,"timezone":"auto"},{"id":"hurstville-02","slug":"hurstville-02","name":"Hurstville","lat":-33.9677,"lon":151.10149,"population":29744,"timezone":"auto"},{"id":"merrylands-02","slug":"merrylands-02","name":"Merrylands","lat":-33.83333,"lon":150.98333,"population":29508,"timezone":"auto"},{"id":"mill-park-07","slug":"mill-park-07","name":"Mill Park","lat":-37.66667,"lon":145.06667,"population":29474,"timezone":"auto"},{"id":"warrnambool-07","slug":"warrnambool-07","name":"Warrnambool","lat":-38.38176,"lon":142.48799,"population":29176,"timezone":"auto"},{"id":"bundoora-07","slug":"bundoora-07","name":"Bundoora","lat":-37.69825,"lon":145.05967,"population":28828,"timezone":"auto"},{"id":"buderim-04","slug":"buderim-04","name":"Buderim","lat":-26.68443,"lon":153.05705,"population":28774,"timezone":"auto"},{"id":"doncaster-east-07","slug":"doncaster-east-07","name":"Doncaster East","lat":-37.78761,"lon":145.14888,"population":28016,"timezone":"auto"},{"id":"richmond-07","slug":"richmond-07","name":"Richmond","lat":-37.81819,"lon":145.00176,"population":27878,"timezone":"auto"},{"id":"mosman-02","slug":"mosman-02","name":"Mosman","lat":-33.83902,"lon":151.23956,"population":27844,"timezone":"auto"},{"id":"kellyville-02","slug":"kellyville-02","name":"Kellyville","lat":-33.71028,"lon":150.95095,"population":27676,"timezone":"auto"},{"id":"liverpool-02","slug":"liverpool-02","name":"Liverpool","lat":-33.91938,"lon":150.92588,"population":27545,"timezone":"auto"},{"id":"bentleigh-east-07","slug":"bentleigh-east-07","name":"Bentleigh East","lat":-37.91928,"lon":145.05301,"population":27368,"timezone":"auto"},{"id":"quakers-hill-02","slug":"quakers-hill-02","name":"Quakers Hill","lat":-33.73333,"lon":150.88333,"population":26904,"timezone":"auto"},{"id":"parramatta-02","slug":"parramatta-02","name":"Parramatta","lat":-33.8178,"lon":151.00348,"population":26876,"timezone":"auto"},{"id":"geraldton-08","slug":"geraldton-08","name":"Geraldton","lat":-28.77897,"lon":114.61459,"population":26872,"timezone":"auto"},{"id":"coffs-harbour-02","slug":"coffs-harbour-02","name":"Coffs Harbour","lat":-30.29626,"lon":153.11351,"population":26672,"timezone":"auto"},{"id":"croydon-07","slug":"croydon-07","name":"Croydon","lat":-37.8,"lon":145.28333,"population":26502,"timezone":"auto"},{"id":"narre-warren-07","slug":"narre-warren-07","name":"Narre Warren","lat":-38.03333,"lon":145.3,"population":26389,"timezone":"auto"},{"id":"ryde-02","slug":"ryde-02","name":"Ryde","lat":-33.8188,"lon":151.1062,"population":26385,"timezone":"auto"},{"id":"caboolture-04","slug":"caboolture-04","name":"Caboolture","lat":-27.08465,"lon":152.9511,"population":26341,"timezone":"auto"},{"id":"marrickville-02","slug":"marrickville-02","name":"Marrickville","lat":-33.90741,"lon":151.15546,"population":26140,"timezone":"auto"},{"id":"ferntree-gully-07","slug":"ferntree-gully-07","name":"Ferntree Gully","lat":-37.88461,"lon":145.29539,"population":26019,"timezone":"auto"},{"id":"coburg-07","slug":"coburg-07","name":"Coburg","lat":-37.75,"lon":144.96667,"population":25846,"timezone":"auto"},{"id":"strathfield-02","slug":"strathfield-02","name":"Strathfield","lat":-33.88096,"lon":151.07986,"population":25769,"timezone":"auto"},{"id":"sydney-central-business-district-02","slug":"sydney-central-business-district-02","name":"Sydney Central Business District","lat":-33.86482,"lon":151.20773,"population":25654,"timezone":"auto"},{"id":"keysborough-07","slug":"keysborough-07","name":"Keysborough","lat":-37.99116,"lon":145.17385,"population":25637,"timezone":"auto"},{"id":"hampton-park-07","slug":"hampton-park-07","name":"Hampton Park","lat":-38.03333,"lon":145.25,"population":25377,"timezone":"auto"},{"id":"south-yarra-07","slug":"south-yarra-07","name":"South Yarra","lat":-37.83834,"lon":144.99149,"population":25237,"timezone":"auto"},{"id":"alice-springs-03","slug":"alice-springs-03","name":"Alice Springs","lat":-23.69748,"lon":133.88362,"population":25186,"timezone":"auto"},{"id":"chatswood-02","slug":"chatswood-02","name":"Chatswood","lat":-33.8,"lon":151.18333,"population":25140,"timezone":"auto"},{"id":"mount-gambier-05","slug":"mount-gambier-05","name":"Mount Gambier","lat":-37.8318,"lon":140.77919,"population":25030,"timezone":"auto"},{"id":"palmerston-03","slug":"palmerston-03","name":"Palmerston","lat":-12.48602,"lon":130.9833,"population":25000,"timezone":"auto"},{"id":"upper-coomera-04","slug":"upper-coomera-04","name":"Upper Coomera","lat":-27.87683,"lon":153.28572,"population":24956,"timezone":"auto"},{"id":"glen-iris-07","slug":"glen-iris-07","name":"Glen Iris","lat":-37.86667,"lon":145.06667,"population":24838,"timezone":"auto"},{"id":"traralgon-07","slug":"traralgon-07","name":"Traralgon","lat":-38.19528,"lon":146.5415,"population":24605,"timezone":"auto"},{"id":"kew-07","slug":"kew-07","name":"Kew","lat":-37.80639,"lon":145.03086,"population":24491,"timezone":"auto"},{"id":"campsie-02","slug":"campsie-02","name":"Campsie","lat":-33.9125,"lon":151.10279,"population":24487,"timezone":"auto"},{"id":"greenacre-02","slug":"greenacre-02","name":"Greenacre","lat":-33.90034,"lon":151.05563,"population":24361,"timezone":"auto"},{"id":"brunswick-07","slug":"brunswick-07","name":"Brunswick","lat":-37.76667,"lon":144.96667,"population":24176,"timezone":"auto"},{"id":"carlingford-02","slug":"carlingford-02","name":"Carlingford","lat":-33.78269,"lon":151.04888,"population":24131,"timezone":"auto"},{"id":"endeavour-hills-07","slug":"endeavour-hills-07","name":"Endeavour Hills","lat":-37.97695,"lon":145.25866,"population":24116,"timezone":"auto"},{"id":"northcote-07","slug":"northcote-07","name":"Northcote","lat":-37.76667,"lon":145,"population":24115,"timezone":"auto"},{"id":"caroline-springs-07","slug":"caroline-springs-07","name":"Caroline Springs","lat":-37.74124,"lon":144.73631,"population":24077,"timezone":"auto"},{"id":"south-morang-07","slug":"south-morang-07","name":"South Morang","lat":-37.65,"lon":145.1,"population":23874,"timezone":"auto"},{"id":"ashfield-02","slug":"ashfield-02","name":"Ashfield","lat":-33.88834,"lon":151.12274,"population":23749,"timezone":"auto"},{"id":"armidale-02","slug":"armidale-02","name":"Armidale","lat":-30.50123,"lon":151.66553,"population":23741,"timezone":"auto"},{"id":"epping-02","slug":"epping-02","name":"Epping","lat":-33.77271,"lon":151.08184,"population":23435,"timezone":"auto"},{"id":"mornington-07","slug":"mornington-07","name":"Mornington","lat":-38.21792,"lon":145.03876,"population":23245,"timezone":"auto"},{"id":"robina-04","slug":"robina-04","name":"Robina","lat":-28.07071,"lon":153.39329,"population":23140,"timezone":"auto"},{"id":"wyndham-vale-07","slug":"wyndham-vale-07","name":"Wyndham Vale","lat":-37.89138,"lon":144.62368,"population":23093,"timezone":"auto"},{"id":"hawthorn-07","slug":"hawthorn-07","name":"Hawthorn","lat":-37.81992,"lon":145.0358,"population":23051,"timezone":"auto"},{"id":"dianella-08","slug":"dianella-08","name":"Dianella","lat":-31.88822,"lon":115.87186,"population":23034,"timezone":"auto"},{"id":"granville-02","slug":"granville-02","name":"Granville","lat":-33.8406,"lon":151.00748,"population":22889,"timezone":"auto"},{"id":"glenmore-park-02","slug":"glenmore-park-02","name":"Glenmore Park","lat":-33.79068,"lon":150.6693,"population":22863,"timezone":"auto"},{"id":"morphett-vale-05","slug":"morphett-vale-05","name":"Morphett Vale","lat":-35.13333,"lon":138.51667,"population":22788,"timezone":"auto"},{"id":"mount-isa-04","slug":"mount-isa-04","name":"Mount Isa","lat":-20.72523,"lon":139.49727,"population":22785,"timezone":"auto"},{"id":"thornlie-08","slug":"thornlie-08","name":"Thornlie","lat":-32.06003,"lon":115.955,"population":22779,"timezone":"auto"},{"id":"brighton-07","slug":"brighton-07","name":"Brighton","lat":-37.90561,"lon":145.00279,"population":22742,"timezone":"auto"},{"id":"goulburn-02","slug":"goulburn-02","name":"Goulburn","lat":-34.75155,"lon":149.72086,"population":22645,"timezone":"auto"},{"id":"greystanes-02","slug":"greystanes-02","name":"Greystanes","lat":-33.82346,"lon":150.94607,"population":22591,"timezone":"auto"},{"id":"forest-lake-04","slug":"forest-lake-04","name":"Forest Lake","lat":-27.62563,"lon":152.96883,"population":22581,"timezone":"auto"},{"id":"lalor-07","slug":"lalor-07","name":"Lalor","lat":-37.66667,"lon":145.01667,"population":22413,"timezone":"auto"},{"id":"southbank-07","slug":"southbank-07","name":"Southbank","lat":-37.8228,"lon":144.96434,"population":22397,"timezone":"auto"},{"id":"hornsby-02","slug":"hornsby-02","name":"Hornsby","lat":-33.70244,"lon":151.09931,"population":22335,"timezone":"auto"},{"id":"dandenong-north-07","slug":"dandenong-north-07","name":"Dandenong North","lat":-37.96649,"lon":145.2081,"population":22225,"timezone":"auto"},{"id":"ellenbrook-08","slug":"ellenbrook-08","name":"Ellenbrook","lat":-31.76737,"lon":115.96936,"population":22209,"timezone":"auto"},{"id":"langwarrin-07","slug":"langwarrin-07","name":"Langwarrin","lat":-38.16667,"lon":145.16667,"population":22146,"timezone":"auto"},{"id":"glenroy-07","slug":"glenroy-07","name":"Glenroy","lat":-37.7,"lon":144.93333,"population":22127,"timezone":"auto"},{"id":"busselton-08","slug":"busselton-08","name":"Busselton","lat":-33.65249,"lon":115.3455,"population":21898,"timezone":"auto"},{"id":"boronia-07","slug":"boronia-07","name":"Boronia","lat":-37.86667,"lon":145.28333,"population":21857,"timezone":"auto"},{"id":"cheltenham-07","slug":"cheltenham-07","name":"Cheltenham","lat":-37.96944,"lon":145.04806,"population":21837,"timezone":"auto"},{"id":"camberwell-07","slug":"camberwell-07","name":"Camberwell","lat":-37.84205,"lon":145.0694,"population":21744,"timezone":"auto"},{"id":"roxburgh-park-07","slug":"roxburgh-park-07","name":"Roxburgh Park","lat":-37.62581,"lon":144.92555,"population":21742,"timezone":"auto"},{"id":"cabramatta-02","slug":"cabramatta-02","name":"Cabramatta","lat":-33.89743,"lon":150.93446,"population":21634,"timezone":"auto"},{"id":"springvale-07","slug":"springvale-07","name":"Springvale","lat":-37.94853,"lon":145.15274,"population":21572,"timezone":"auto"},{"id":"mooroolbark-07","slug":"mooroolbark-07","name":"Mooroolbark","lat":-37.78247,"lon":145.31682,"population":21503,"timezone":"auto"},{"id":"malvern-east-07","slug":"malvern-east-07","name":"Malvern East","lat":-37.87397,"lon":145.04253,"population":21282,"timezone":"auto"},{"id":"north-lakes-04","slug":"north-lakes-04","name":"North Lakes","lat":-27.22426,"lon":153.02075,"population":21260,"timezone":"auto"},{"id":"morayfield-04","slug":"morayfield-04","name":"Morayfield","lat":-27.10876,"lon":152.94907,"population":21221,"timezone":"auto"},{"id":"hawthorn-south-07","slug":"hawthorn-south-07","name":"Hawthorn South","lat":-37.8329,"lon":145.0367,"population":21177,"timezone":"auto"},{"id":"glenferrie-07","slug":"glenferrie-07","name":"Glenferrie","lat":-37.83333,"lon":145.05,"population":21177,"timezone":"auto"},{"id":"dee-why-02","slug":"dee-why-02","name":"Dee Why","lat":-33.7511,"lon":151.28886,"population":21145,"timezone":"auto"},{"id":"morley-08","slug":"morley-08","name":"Morley","lat":-31.88775,"lon":115.9099,"population":21134,"timezone":"auto"},{"id":"kirwan-04","slug":"kirwan-04","name":"Kirwan","lat":-19.30323,"lon":146.72531,"population":21034,"timezone":"auto"},{"id":"doreen-07","slug":"doreen-07","name":"Doreen","lat":-37.6,"lon":145.15,"population":20954,"timezone":"auto"},{"id":"doncaster-07","slug":"doncaster-07","name":"Doncaster","lat":-37.78828,"lon":145.12373,"population":20728,"timezone":"auto"},{"id":"truganina-07","slug":"truganina-07","name":"Truganina","lat":-37.81667,"lon":144.75,"population":20646,"timezone":"auto"},{"id":"carrum-downs-07","slug":"carrum-downs-07","name":"Carrum Downs","lat":-38.09968,"lon":145.17248,"population":20444,"timezone":"auto"},{"id":"thomastown-07","slug":"thomastown-07","name":"Thomastown","lat":-37.68333,"lon":145.01667,"population":20441,"timezone":"auto"},{"id":"saint-kilda-07","slug":"saint-kilda-07","name":"Saint Kilda","lat":-37.8676,"lon":144.98099,"population":20417,"timezone":"auto"},{"id":"greensborough-07","slug":"greensborough-07","name":"Greensborough","lat":-37.70462,"lon":145.10302,"population":20407,"timezone":"auto"},{"id":"essendon-07","slug":"essendon-07","name":"Essendon","lat":-37.74981,"lon":144.9109,"population":20310,"timezone":"auto"},{"id":"kallangur-04","slug":"kallangur-04","name":"Kallangur","lat":-27.25204,"lon":152.99226,"population":20222,"timezone":"auto"},{"id":"punchbowl-02","slug":"punchbowl-02","name":"Punchbowl","lat":-33.92893,"lon":151.05111,"population":20174,"timezone":"auto"},{"id":"clayton-07","slug":"clayton-07","name":"Clayton","lat":-37.91667,"lon":145.11667,"population":20130,"timezone":"auto"},{"id":"balwyn-north-07","slug":"balwyn-north-07","name":"Balwyn North","lat":-37.79086,"lon":145.09386,"population":20015,"timezone":"auto"},{"id":"gawler-05","slug":"gawler-05","name":"Gawler","lat":-34.60251,"lon":138.74902,"population":20006,"timezone":"auto"},{"id":"burnie-06","slug":"burnie-06","name":"Burnie","lat":-41.05584,"lon":145.90375,"population":19972,"timezone":"auto"},{"id":"gosnells-08","slug":"gosnells-08","name":"Gosnells","lat":-32.081,"lon":116.0054,"population":19914,"timezone":"auto"},{"id":"cranbourne-north-07","slug":"cranbourne-north-07","name":"Cranbourne North","lat":-38.07758,"lon":145.29871,"population":19900,"timezone":"auto"},{"id":"st-clair-02","slug":"st-clair-02","name":"St Clair","lat":-33.79728,"lon":150.7847,"population":19856,"timezone":"auto"},{"id":"cranbourne-07","slug":"cranbourne-07","name":"Cranbourne","lat":-38.11342,"lon":145.28326,"population":19825,"timezone":"auto"},{"id":"adelaide-city-centre-05","slug":"adelaide-city-centre-05","name":"Adelaide city centre","lat":-34.92873,"lon":138.60334,"population":19820,"timezone":"auto"},{"id":"lidcombe-02","slug":"lidcombe-02","name":"Lidcombe","lat":-33.86436,"lon":151.0397,"population":19791,"timezone":"auto"},{"id":"bexley-02","slug":"bexley-02","name":"Bexley","lat":-33.95,"lon":151.11667,"population":19664,"timezone":"auto"},{"id":"deception-bay-04","slug":"deception-bay-04","name":"Deception Bay","lat":-27.19354,"lon":153.02631,"population":19539,"timezone":"auto"},{"id":"wheelers-hill-07","slug":"wheelers-hill-07","name":"Wheelers Hill","lat":-37.9,"lon":145.18333,"population":19369,"timezone":"auto"},{"id":"seven-hills-02","slug":"seven-hills-02","name":"Seven Hills","lat":-33.78333,"lon":150.93333,"population":19196,"timezone":"auto"},{"id":"wollongong-city-centre-02","slug":"wollongong-city-centre-02","name":"Wollongong city centre","lat":-34.4279,"lon":150.89268,"population":19108,"timezone":"auto"},{"id":"redbank-plains-04","slug":"redbank-plains-04","name":"Redbank Plains","lat":-27.64613,"lon":152.85965,"population":19094,"timezone":"auto"},{"id":"wantirna-south-07","slug":"wantirna-south-07","name":"Wantirna South","lat":-37.88333,"lon":145.21667,"population":19081,"timezone":"auto"},{"id":"altona-meadows-07","slug":"altona-meadows-07","name":"Altona Meadows","lat":-37.88413,"lon":144.78367,"population":18874,"timezone":"auto"},{"id":"carlton-07","slug":"carlton-07","name":"Carlton","lat":-37.8,"lon":144.96667,"population":18829,"timezone":"auto"},{"id":"cherrybrook-02","slug":"cherrybrook-02","name":"Cherrybrook","lat":-33.72197,"lon":151.04607,"population":18588,"timezone":"auto"},{"id":"wodonga-07","slug":"wodonga-07","name":"Wodonga","lat":-36.12179,"lon":146.88809,"population":18582,"timezone":"auto"},{"id":"sunshine-west-07","slug":"sunshine-west-07","name":"Sunshine West","lat":-37.79117,"lon":144.81637,"population":18568,"timezone":"auto"},{"id":"ballajura-08","slug":"ballajura-08","name":"Ballajura","lat":-31.84062,"lon":115.89549,"population":18408,"timezone":"auto"},{"id":"highton-07","slug":"highton-07","name":"Highton","lat":-38.17058,"lon":144.3114,"population":18388,"timezone":"auto"},{"id":"maroochydore-04","slug":"maroochydore-04","name":"Maroochydore","lat":-26.66008,"lon":153.09953,"population":18342,"timezone":"auto"},{"id":"labrador-04","slug":"labrador-04","name":"Labrador","lat":-27.94402,"lon":153.39815,"population":18326,"timezone":"auto"},{"id":"thornbury-07","slug":"thornbury-07","name":"Thornbury","lat":-37.75819,"lon":145.00583,"population":18292,"timezone":"auto"},{"id":"narangba-04","slug":"narangba-04","name":"Narangba","lat":-27.20338,"lon":152.95923,"population":18217,"timezone":"auto"},{"id":"griffith-02","slug":"griffith-02","name":"Griffith","lat":-34.28853,"lon":146.05093,"population":18154,"timezone":"auto"},{"id":"broken-hill-02","slug":"broken-hill-02","name":"Broken Hill","lat":-31.9652,"lon":141.4512,"population":18027,"timezone":"auto"},{"id":"deer-park-07","slug":"deer-park-07","name":"Deer Park","lat":-37.76722,"lon":144.76657,"population":17980,"timezone":"auto"},{"id":"fairfield-02","slug":"fairfield-02","name":"Fairfield","lat":-33.86667,"lon":150.95,"population":17932,"timezone":"auto"},{"id":"yagoona-02","slug":"yagoona-02","name":"Yagoona","lat":-33.9049,"lon":151.01996,"population":17908,"timezone":"auto"},{"id":"wangaratta-07","slug":"wangaratta-07","name":"Wangaratta","lat":-36.35846,"lon":146.32056,"population":17897,"timezone":"auto"},{"id":"willetton-08","slug":"willetton-08","name":"Willetton","lat":-32.05251,"lon":115.88782,"population":17887,"timezone":"auto"},{"id":"sunnybank-hills-04","slug":"sunnybank-hills-04","name":"Sunnybank Hills","lat":-27.61025,"lon":153.05388,"population":17842,"timezone":"auto"},{"id":"westmead-02","slug":"westmead-02","name":"Westmead","lat":-33.80383,"lon":150.98768,"population":17835,"timezone":"auto"},{"id":"eltham-07","slug":"eltham-07","name":"Eltham","lat":-37.73333,"lon":145.15,"population":17829,"timezone":"auto"},{"id":"frankston-south-07","slug":"frankston-south-07","name":"Frankston South","lat":-38.16604,"lon":145.13643,"population":17826,"timezone":"auto"},{"id":"eastwood-02","slug":"eastwood-02","name":"Eastwood","lat":-33.79176,"lon":151.08057,"population":17792,"timezone":"auto"},{"id":"mount-martha-07","slug":"mount-martha-07","name":"Mount Martha","lat":-38.26667,"lon":145.01667,"population":17788,"timezone":"auto"},{"id":"cronulla-02","slug":"cronulla-02","name":"Cronulla","lat":-34.06251,"lon":151.14961,"population":17703,"timezone":"auto"},{"id":"wahroonga-02","slug":"wahroonga-02","name":"Wahroonga","lat":-33.71816,"lon":151.11561,"population":17652,"timezone":"auto"},{"id":"mulgrave-07","slug":"mulgrave-07","name":"Mulgrave","lat":-37.92845,"lon":145.17708,"population":17647,"timezone":"auto"},{"id":"earlwood-02","slug":"earlwood-02","name":"Earlwood","lat":-33.9209,"lon":151.12506,"population":17592,"timezone":"auto"},{"id":"melton-west-07","slug":"melton-west-07","name":"Melton West","lat":-37.67852,"lon":144.56883,"population":17477,"timezone":"auto"},{"id":"mount-eliza-07","slug":"mount-eliza-07","name":"Mount Eliza","lat":-38.18333,"lon":145.08333,"population":17358,"timezone":"auto"},{"id":"ringwood-07","slug":"ringwood-07","name":"Ringwood","lat":-37.81667,"lon":145.23333,"population":17242,"timezone":"auto"},{"id":"engadine-02","slug":"engadine-02","name":"Engadine","lat":-34.06564,"lon":151.01266,"population":17141,"timezone":"auto"},{"id":"carnegie-07","slug":"carnegie-07","name":"Carnegie","lat":-37.89359,"lon":145.05534,"population":17121,"timezone":"auto"},{"id":"saint-ives-02","slug":"saint-ives-02","name":"Saint Ives","lat":-33.72976,"lon":151.15977,"population":17036,"timezone":"auto"},{"id":"capalaba-04","slug":"capalaba-04","name":"Capalaba","lat":-27.54333,"lon":153.20287,"population":17027,"timezone":"auto"},{"id":"hillside-07","slug":"hillside-07","name":"Hillside","lat":-37.69047,"lon":144.74172,"population":16976,"timezone":"auto"},{"id":"calamvale-04","slug":"calamvale-04","name":"Calamvale","lat":-27.62329,"lon":153.04785,"population":16927,"timezone":"auto"},{"id":"lakemba-02","slug":"lakemba-02","name":"Lakemba","lat":-33.91972,"lon":151.07592,"population":16921,"timezone":"auto"},{"id":"parafield-gardens-05","slug":"parafield-gardens-05","name":"Parafield Gardens","lat":-34.78254,"lon":138.61077,"population":16872,"timezone":"auto"},{"id":"pascoe-vale-07","slug":"pascoe-vale-07","name":"Pascoe Vale","lat":-37.73333,"lon":144.93333,"population":16850,"timezone":"auto"},{"id":"helensvale-04","slug":"helensvale-04","name":"Helensvale","lat":-27.91828,"lon":153.33275,"population":16839,"timezone":"auto"},{"id":"nerang-04","slug":"nerang-04","name":"Nerang","lat":-27.98941,"lon":153.33633,"population":16739,"timezone":"auto"},{"id":"bracken-ridge-04","slug":"bracken-ridge-04","name":"Bracken Ridge","lat":-27.3171,"lon":153.03097,"population":16701,"timezone":"auto"},{"id":"mount-druitt-02","slug":"mount-druitt-02","name":"Mount Druitt","lat":-33.76667,"lon":150.81667,"population":16682,"timezone":"auto"},{"id":"pacific-pines-04","slug":"pacific-pines-04","name":"Pacific Pines","lat":-27.93994,"lon":153.31436,"population":16605,"timezone":"auto"},{"id":"footscray-07","slug":"footscray-07","name":"Footscray","lat":-37.8,"lon":144.9,"population":16550,"timezone":"auto"},{"id":"surry-hills-02","slug":"surry-hills-02","name":"Surry Hills","lat":-33.88374,"lon":151.21282,"population":16492,"timezone":"auto"},{"id":"umina-beach-02","slug":"umina-beach-02","name":"Umina Beach","lat":-33.52314,"lon":151.31325,"population":16413,"timezone":"auto"},{"id":"paralowie-05","slug":"paralowie-05","name":"Paralowie","lat":-34.75705,"lon":138.60819,"population":16386,"timezone":"auto"},{"id":"the-gap-04","slug":"the-gap-04","name":"The Gap","lat":-27.44187,"lon":152.93861,"population":16371,"timezone":"auto"},{"id":"mernda-07","slug":"mernda-07","name":"Mernda","lat":-37.60075,"lon":145.09555,"population":16370,"timezone":"auto"},{"id":"taree-02","slug":"taree-02","name":"Taree","lat":-31.91099,"lon":152.45387,"population":16359,"timezone":"auto"},{"id":"templestowe-07","slug":"templestowe-07","name":"Templestowe","lat":-37.75405,"lon":145.14864,"population":16305,"timezone":"auto"},{"id":"lilydale-07","slug":"lilydale-07","name":"Lilydale","lat":-37.75,"lon":145.35,"population":16209,"timezone":"auto"},{"id":"manly-02","slug":"manly-02","name":"Manly","lat":-33.79798,"lon":151.28826,"population":16170,"timezone":"auto"},{"id":"west-pennant-hills-02","slug":"west-pennant-hills-02","name":"West Pennant Hills","lat":-33.7457,"lon":151.04764,"population":16162,"timezone":"auto"},{"id":"seaford-07","slug":"seaford-07","name":"Seaford","lat":-38.1,"lon":145.13333,"population":16148,"timezone":"auto"},{"id":"alexandra-hills-04","slug":"alexandra-hills-04","name":"Alexandra Hills","lat":-27.53221,"lon":153.22889,"population":16043,"timezone":"auto"},{"id":"glenwood-02","slug":"glenwood-02","name":"Glenwood","lat":-33.73333,"lon":150.93284,"population":16040,"timezone":"auto"},{"id":"cranbourne-east-07","slug":"cranbourne-east-07","name":"Cranbourne East","lat":-38.11531,"lon":145.29814,"population":15994,"timezone":"auto"},{"id":"mascot-02","slug":"mascot-02","name":"Mascot","lat":-33.92598,"lon":151.19347,"population":15985,"timezone":"auto"},{"id":"coorparoo-04","slug":"coorparoo-04","name":"Coorparoo","lat":-27.49325,"lon":153.05826,"population":15965,"timezone":"auto"},{"id":"burwood-02","slug":"burwood-02","name":"Burwood","lat":-33.88333,"lon":151.1,"population":15935,"timezone":"auto"},{"id":"lara-07","slug":"lara-07","name":"Lara","lat":-38.02388,"lon":144.40617,"population":15919,"timezone":"auto"},{"id":"bentleigh-07","slug":"bentleigh-07","name":"Bentleigh","lat":-37.91806,"lon":145.03544,"population":15892,"timezone":"auto"},{"id":"banora-point-02","slug":"banora-point-02","name":"Banora Point","lat":-28.21298,"lon":153.53634,"population":15868,"timezone":"auto"},{"id":"mitcham-07","slug":"mitcham-07","name":"Mitcham","lat":-37.81667,"lon":145.2,"population":15861,"timezone":"auto"},{"id":"port-melbourne-07","slug":"port-melbourne-07","name":"Port Melbourne","lat":-37.83961,"lon":144.94228,"population":15817,"timezone":"auto"}]},{"id":"aw","iso2":"AW","label":"AW","type":"cities","timezone":"auto","cities":[{"id":"oranjestad-00","slug":"oranjestad-00","name":"Oranjestad","lat":12.52398,"lon":-70.02703,"population":29998,"timezone":"auto"},{"id":"tanki-leendert-00","slug":"tanki-leendert-00","name":"Tanki Leendert","lat":12.53914,"lon":-70.02004,"population":21500,"timezone":"auto"},{"id":"san-nicolas-00","slug":"san-nicolas-00","name":"San Nicolas","lat":12.43624,"lon":-69.90713,"population":15200,"timezone":"auto"}]},{"id":"ax","iso2":"AX","label":"AX","type":"cities","timezone":"auto","cities":[{"id":"mariehamn-211","slug":"mariehamn-211","name":"Mariehamn","lat":60.09726,"lon":19.93481,"population":10682,"timezone":"auto"}]},{"id":"az","iso2":"AZ","label":"Azerbaijan","type":"cities","timezone":"auto","cities":[{"id":"baku-09","slug":"baku-09","name":"Baku","lat":40.37767,"lon":49.89201,"population":1116513,"timezone":"auto"},{"id":"ganja-20","slug":"ganja-20","name":"Ganja","lat":40.68278,"lon":46.36056,"population":313300,"timezone":"auto"},{"id":"sumqay-t-54","slug":"sumqay-t-54","name":"Sumqayıt","lat":40.58972,"lon":49.66861,"population":265150,"timezone":"auto"},{"id":"lankaran-29","slug":"lankaran-29","name":"Lankaran","lat":38.75428,"lon":48.85062,"population":240300,"timezone":"auto"},{"id":"yevlakh-68","slug":"yevlakh-68","name":"Yevlakh","lat":40.61832,"lon":47.15014,"population":127400,"timezone":"auto"},{"id":"mingelchaur-33","slug":"mingelchaur-33","name":"Mingelchaur","lat":40.76395,"lon":47.05953,"population":95453,"timezone":"auto"},{"id":"saatl-45","slug":"saatl-45","name":"Saatlı","lat":39.93214,"lon":48.36892,"population":87000,"timezone":"auto"},{"id":"qaracuxur-09","slug":"qaracuxur-09","name":"Qaraçuxur","lat":40.39667,"lon":49.97361,"population":72989,"timezone":"auto"},{"id":"sirvan-07","slug":"sirvan-07","name":"Şirvan","lat":39.93778,"lon":48.929,"population":70220,"timezone":"auto"},{"id":"bak-xanov-09","slug":"bak-xanov-09","name":"Bakıxanov","lat":40.41894,"lon":49.96693,"population":66686,"timezone":"auto"},{"id":"nakhchivan-35","slug":"nakhchivan-35","name":"Nakhchivan","lat":39.20889,"lon":45.41222,"population":64754,"timezone":"auto"},{"id":"sheki-48","slug":"sheki-48","name":"Sheki","lat":41.19194,"lon":47.17056,"population":63000,"timezone":"auto"},{"id":"xankandi-61","slug":"xankandi-61","name":"Xankandi","lat":39.8177,"lon":46.7528,"population":53100,"timezone":"auto"},{"id":"bilajari-09","slug":"bilajari-09","name":"Bilajari","lat":40.4444,"lon":49.80566,"population":42194,"timezone":"auto"},{"id":"mastaga-09","slug":"mastaga-09","name":"Maştağa","lat":40.52983,"lon":50.00616,"population":40092,"timezone":"auto"},{"id":"agdam-03","slug":"agdam-03","name":"Ağdam","lat":39.99096,"lon":46.92736,"population":39451,"timezone":"auto"},{"id":"khirdalan-01","slug":"khirdalan-01","name":"Khirdalan","lat":40.44808,"lon":49.75502,"population":37949,"timezone":"auto"},{"id":"barda-11","slug":"barda-11","name":"Barda","lat":40.37577,"lon":47.12619,"population":37372,"timezone":"auto"},{"id":"xacmaz-60","slug":"xacmaz-60","name":"Xaçmaz","lat":41.46426,"lon":48.80565,"population":37175,"timezone":"auto"},{"id":"salyan-49","slug":"salyan-49","name":"Salyan","lat":39.59621,"lon":48.98479,"population":36555,"timezone":"auto"},{"id":"hovsan-09","slug":"hovsan-09","name":"Hövsan","lat":40.37444,"lon":50.08528,"population":36293,"timezone":"auto"},{"id":"jalilabad-15","slug":"jalilabad-15","name":"Jalilabad","lat":39.20963,"lon":48.49186,"population":36259,"timezone":"auto"},{"id":"shamkhor-51","slug":"shamkhor-51","name":"Shamkhor","lat":40.82975,"lon":46.0178,"population":35421,"timezone":"auto"},{"id":"geoktschai-22","slug":"geoktschai-22","name":"Geoktschai","lat":40.65055,"lon":47.74219,"population":35348,"timezone":"auto"},{"id":"agdzhabedy-02","slug":"agdzhabedy-02","name":"Agdzhabedy","lat":40.05015,"lon":47.45937,"population":34989,"timezone":"auto"},{"id":"imishli-24","slug":"imishli-24","name":"Imishli","lat":39.87095,"lon":48.05995,"population":34178,"timezone":"auto"},{"id":"lokbatan-09","slug":"lokbatan-09","name":"Lökbatan","lat":40.3256,"lon":49.73376,"population":30694,"timezone":"auto"},{"id":"shamakhi-50","slug":"shamakhi-50","name":"Shamakhi","lat":40.63141,"lon":48.64137,"population":29403,"timezone":"auto"},{"id":"sabirabad-46","slug":"sabirabad-46","name":"Sabirabad","lat":40.00869,"lon":48.47701,"population":28075,"timezone":"auto"},{"id":"amirdzhan-09","slug":"amirdzhan-09","name":"Amirdzhan","lat":40.42639,"lon":49.98361,"population":26798,"timezone":"auto"},{"id":"fizuli-18","slug":"fizuli-18","name":"Fizuli","lat":39.60094,"lon":47.14529,"population":26765,"timezone":"auto"},{"id":"buzovna-09","slug":"buzovna-09","name":"Buzovna","lat":40.51903,"lon":50.11438,"population":24795,"timezone":"auto"},{"id":"biny-selo-09","slug":"biny-selo-09","name":"Biny Selo","lat":40.45076,"lon":50.08686,"population":24596,"timezone":"auto"},{"id":"agdas-04","slug":"agdas-04","name":"Ağdaş","lat":40.64699,"lon":47.4738,"population":23528,"timezone":"auto"},{"id":"divichibazar-17","slug":"divichibazar-17","name":"Divichibazar","lat":41.20117,"lon":48.98712,"population":23248,"timezone":"auto"},{"id":"hac-qabul-23","slug":"hac-qabul-23","name":"Hacıqabul","lat":40.03874,"lon":48.94286,"population":23102,"timezone":"auto"},{"id":"quba-42","slug":"quba-42","name":"Quba","lat":41.36108,"lon":48.51341,"population":22405,"timezone":"auto"},{"id":"zabrat-09","slug":"zabrat-09","name":"Zabrat","lat":40.47746,"lon":49.94174,"population":21396,"timezone":"auto"},{"id":"sabuncu-09","slug":"sabuncu-09","name":"Sabunçu","lat":40.4425,"lon":49.94806,"population":20996,"timezone":"auto"},{"id":"kyurdarmir-27","slug":"kyurdarmir-27","name":"Kyurdarmir","lat":40.34257,"lon":48.15649,"population":19088,"timezone":"auto"},{"id":"hac-zeynalabdin-54","slug":"hac-zeynalabdin-54","name":"Hacı Zeynalabdin","lat":40.62333,"lon":49.55861,"population":19019,"timezone":"auto"},{"id":"qazax-40","slug":"qazax-40","name":"Qazax","lat":41.09246,"lon":45.36561,"population":18903,"timezone":"auto"},{"id":"shushi-55","slug":"shushi-55","name":"Shushi","lat":39.76006,"lon":46.74989,"population":18662,"timezone":"auto"},{"id":"neftcala-36","slug":"neftcala-36","name":"Neftçala","lat":39.3768,"lon":49.247,"population":18661,"timezone":"auto"},{"id":"zaqatala-70","slug":"zaqatala-70","name":"Zaqatala","lat":41.6316,"lon":46.64479,"population":18277,"timezone":"auto"},{"id":"terter-57","slug":"terter-57","name":"Terter","lat":40.34201,"lon":46.93161,"population":18185,"timezone":"auto"},{"id":"pushkino-13","slug":"pushkino-13","name":"Pushkino","lat":39.45833,"lon":48.545,"population":18182,"timezone":"auto"},{"id":"yelenendorf-62","slug":"yelenendorf-62","name":"Yelenendorf","lat":40.58584,"lon":46.3189,"population":17816,"timezone":"auto"},{"id":"hm-db-yli-45","slug":"hm-db-yli-45","name":"Əhmədbəyli","lat":39.88074,"lon":48.39158,"population":17242,"timezone":"auto"},{"id":"aghsu-06","slug":"aghsu-06","name":"Aghsu","lat":40.57028,"lon":48.40087,"population":17209,"timezone":"auto"},{"id":"yeni-suraxan-09","slug":"yeni-suraxan-09","name":"Yeni Suraxanı","lat":40.43026,"lon":50.03598,"population":16127,"timezone":"auto"},{"id":"qusar-44","slug":"qusar-44","name":"Qusar","lat":41.4275,"lon":48.4302,"population":16022,"timezone":"auto"},{"id":"ujar-59","slug":"ujar-59","name":"Ujar","lat":40.51902,"lon":47.65423,"population":15741,"timezone":"auto"},{"id":"beylagan-12","slug":"beylagan-12","name":"Beylagan","lat":39.77556,"lon":47.61861,"population":15599,"timezone":"auto"},{"id":"mardakan-09","slug":"mardakan-09","name":"Mardakan","lat":40.49182,"lon":50.14292,"population":15267,"timezone":"auto"},{"id":"astara-08","slug":"astara-08","name":"Astara","lat":38.45598,"lon":48.87498,"population":15190,"timezone":"auto"}]},{"id":"ba","iso2":"BA","label":"Bosnia and Herzegovina","type":"cities","timezone":"auto","cities":[{"id":"sarajevo-01","slug":"sarajevo-01","name":"Sarajevo","lat":43.84864,"lon":18.35644,"population":696731,"timezone":"auto"},{"id":"banja-luka-02","slug":"banja-luka-02","name":"Banja Luka","lat":44.77842,"lon":17.19386,"population":221106,"timezone":"auto"},{"id":"zenica-01","slug":"zenica-01","name":"Zenica","lat":44.20169,"lon":17.90397,"population":164423,"timezone":"auto"},{"id":"tuzla-01","slug":"tuzla-01","name":"Tuzla","lat":44.53842,"lon":18.66709,"population":142486,"timezone":"auto"},{"id":"mostar-01","slug":"mostar-01","name":"Mostar","lat":43.34333,"lon":17.80806,"population":104518,"timezone":"auto"},{"id":"bihac-01","slug":"bihac-01","name":"Bihać","lat":44.81694,"lon":15.87083,"population":75641,"timezone":"auto"},{"id":"bugojno-01","slug":"bugojno-01","name":"Bugojno","lat":44.05722,"lon":17.45083,"population":41378,"timezone":"auto"},{"id":"brcko-brc","slug":"brcko-brc","name":"Brčko","lat":44.86995,"lon":18.81012,"population":38968,"timezone":"auto"},{"id":"bijeljina-02","slug":"bijeljina-02","name":"Bijeljina","lat":44.75874,"lon":19.21437,"population":37692,"timezone":"auto"},{"id":"prijedor-02","slug":"prijedor-02","name":"Prijedor","lat":44.97991,"lon":16.71401,"population":36347,"timezone":"auto"},{"id":"trebinje-02","slug":"trebinje-02","name":"Trebinje","lat":42.71197,"lon":18.34362,"population":33178,"timezone":"auto"},{"id":"travnik-01","slug":"travnik-01","name":"Travnik","lat":44.22637,"lon":17.66583,"population":31127,"timezone":"auto"},{"id":"doboj-02","slug":"doboj-02","name":"Doboj","lat":44.73179,"lon":18.08698,"population":27235,"timezone":"auto"},{"id":"cazin-01","slug":"cazin-01","name":"Cazin","lat":44.96694,"lon":15.94306,"population":21741,"timezone":"auto"},